#------------------------------------------------------------------------------
#
#   Created by  : [OpenWorks] Log Export Utility (LEXP)
#   Created on  : 2011-12-19 12:32:06
#   Project     : AREA_58_60_21DEC
#   User        : AKAFU
#   Interpreter : AKAFU
#
#------------------------------------------------------------------------------
~VERSION INFORMATION
VERS. 2.0 : CWLS Log ASCII Standard - version 2.0
WRAP.  NO : One line per depth step
~WELL INFORMATION
#MNEMONIC   .UNIT                                           VALUE :DESCRIPTION
#------------------------------------------------------------------------------
STRT        .M                                             0.0000 :START DEPTH
STOP        .M                                          1999.9452 :STOP DEPTH
STEP        .M                                             0.1524 :STEP
NULL        .                                           -999.2500 :NULL VALUE
COMP        .                                             UNKNOWN :COMPANY
WELL        .                                          NO 15/9-13 :WELL
FLD         .                                            SLEIPNER :FIELD
LOC         .                                             UNKNOWN :LOCATION
CNTY        .                                             UNKNOWN :COUNTY
STAT        .                                             UNKNOWN :STATE
CTRY        .                                              Norway :COUNTRY
SRVC        .                                             UNKNOWN :SERVICE COMPANY
DATE        .                                             UNKNOWN :LOG DATE
UWI         .                                          NO 15/9-13 :UNIQUE WELL ID
XCOORD      .                                       437653.695349 :SURFACE X
YCOORD      .                                      6470978.020701 :SURFACE Y
LAT         .                                           58.373878 :LATITUDE
LON         .                                            1.934128 :LONGITUDE
ELEV        .M                                            25.0000 :SURFACE ELEV
ELEV_TYPE   .                                                  KB :ELEV TYPE
~CURVE INFORMATION
#MNEMONIC.UNIT        API CODE       : CURVE DESCRIPTION
#------------------------------------------------------------------------------
DEPTH    .M                          : Measured Depth
CALI     .inches                     : CALI:SFINX:rC:NONE:v1 
DT-CKS   .us/ft                      : DT-CKS:SFINX:rC:NONE:v1 
DT       .us/ft                      : DT:SFINX:rC:NONE:v1 
GR       .API                        : GR:SFINX:rC:NONE:v1 
NPHI     .v/v_decimal                : NPHI:SFINX:rC:NONE:v1 
PHIF     .v/v_decimal                : PHIF:SFINX:rC:NONE:v1 
RFT      .bar         UNKNOWN        : RFT:SFINX:rC:NONE:v1 
RHOB     .g/cm3                      : RHOB:SFINX:rC:NONE:v1 
RT       .ohm.m                      : RT:SFINX:rC:NONE:v1 
SAND     .unitless                   : SAND:SFINX:rC:NONE:v1 
SP       .mV                         : SP:SFINX:rC:NONE:v1 
SW       .v/v_decimal                : SW:SFINX:rC:NONE:v1 
VSH      .v/v_decimal                : VSH:SFINX:rC:NONE:v1 
~A     DEPTH         CALI       DT-CKS           DT           GR         NPHI         PHIF          RFT         RHOB           RT         SAND           SP           SW          VSH
# ...
   1421.5872      12.1880     152.7853      64.0000      94.8750       0.4893    -999.2500    -999.2500       1.9277    -999.2500    -999.2500     134.5000    -999.2500    -999.2500
   1421.7396      12.3750     152.5866      63.0000      90.0630       0.5547    -999.2500    -999.2500       1.9336    -999.2500    -999.2500     135.7500    -999.2500    -999.2500
   1421.8920      12.2340     152.3726      62.1880      93.3130       0.5122    -999.2500    -999.2500       1.9424    -999.2500    -999.2500     135.6200    -999.2500    -999.2500
   1422.0444      12.2340     152.1641      61.7810      85.5000       0.5229    -999.2500    -999.2500       1.9434    -999.2500    -999.2500     134.2500    -999.2500    -999.2500
   1422.1968      12.2890     151.9666      61.3750      82.8750       0.4697    -999.2500    -999.2500       1.9346    -999.2500    -999.2500     134.6200    -999.2500    -999.2500
   1422.3492      12.3360     151.7694      62.0000      77.0000       0.5615    -999.2500    -999.2500       1.9346    -999.2500    -999.2500     134.5000    -999.2500    -999.2500
   1422.5016      12.2810     151.5603     414.0000      82.0000       0.5615    -999.2500    -999.2500       1.9326    -999.2500    -999.2500     133.5000    -999.2500    -999.2500
   1422.6541      12.2580     151.3564     682.0000      84.8750       0.5566    -999.2500    -999.2500       1.9443    -999.2500    -999.2500     132.8700    -999.2500    -999.2500
   1422.8064      12.2420     151.1512     680.0000      83.5000       0.5381    -999.2500    -999.2500       1.9453    -999.2500    -999.2500     134.8700    -999.2500    -999.2500
   1422.9587      12.1250     150.9516     690.0000      83.9380       0.5625    -999.2500    -999.2500       1.9395    -999.2500    -999.2500     135.0000    -999.2500    -999.2500
   1423.1112      12.2890     150.7413     683.0000      87.0000       0.5669    -999.2500    -999.2500       1.9307    -999.2500    -999.2500     134.7500    -999.2500    -999.2500
   1423.2635      12.5000     150.5365     673.0000      90.4380       0.5845    -999.2500    -999.2500       1.9277    -999.2500    -999.2500     135.3700    -999.2500    -999.2500
   1423.4160      12.5630     150.3304     685.5000      91.1250       0.5503    -999.2500    -999.2500       1.9326    -999.2500    -999.2500     134.8700    -999.2500    -999.2500
   1423.5684      12.5390     150.1237     691.5000      91.3750       0.5503    -999.2500    -999.2500       1.9404    -999.2500    -999.2500     134.3700    -999.2500    -999.2500
   1423.7208      12.5390     149.9250     692.5000      88.7500       0.4575    -999.2500    -999.2500       1.9482    -999.2500    -999.2500     134.8700    -999.2500    -999.2500
   1423.8732      12.5860     149.7159     691.0000      86.6250       0.4414    -999.2500    -999.2500       1.9727    -999.2500    -999.2500     134.6200    -999.2500    -999.2500
   1424.0256      12.6090     149.5154     694.0000      88.5000       0.4702    -999.2500    -999.2500       1.9902    -999.2500    -999.2500     135.0000    -999.2500    -999.2500
   1424.1780      12.4530     149.3047     691.5000      88.6880       0.4888    -999.2500    -999.2500       2.0078    -999.2500    -999.2500     136.1200    -999.2500    -999.2500
   1424.3304      12.4770     149.1100     692.0000      96.7500       0.5386    -999.2500    -999.2500       1.9990    -999.2500    -999.2500     135.5000    -999.2500    -999.2500
   1424.4828      12.6170     148.8990     691.0000      92.1880       0.5322    -999.2500    -999.2500       1.9980    -999.2500    -999.2500     136.6200    -999.2500    -999.2500
   1424.6353      12.7030     148.6979     693.5000      93.5630       0.5635    -999.2500    -999.2500       1.9922    -999.2500    -999.2500     135.7500    -999.2500    -999.2500
   1424.7876      12.7270     148.4903     693.0000      90.1880       0.5132    -999.2500    -999.2500       1.9932    -999.2500    -999.2500     134.8700    -999.2500    -999.2500
   1424.9399      12.7270     148.2931     693.5000      91.6880       0.5190    -999.2500    -999.2500       1.9805    -999.2500    -999.2500     134.5000    -999.2500    -999.2500
   1425.0924      12.8200     148.0849     690.0000      94.5000       0.5083    -999.2500    -999.2500       1.9717    -999.2500    -999.2500     136.7500    -999.2500    -999.2500
   1425.2448      12.7970     147.8847     691.5000      92.1250       0.5347    -999.2500    -999.2500       1.9717    -999.2500    -999.2500     137.8700    -999.2500    -999.2500
   1425.3972      12.8360     147.6707     696.0000      91.8130       0.4829    -999.2500    -999.2500       1.9775    -999.2500    -999.2500     134.5000    -999.2500    -999.2500
   1425.5496      12.9530     147.4753     685.0000      88.1880       0.4717    -999.2500    -999.2500       1.9844    -999.2500    -999.2500     134.7500    -999.2500    -999.2500
   1425.7020      13.0550     147.2714     690.5000      85.4380       0.4888    -999.2500    -999.2500       1.9805    -999.2500    -999.2500     134.1200    -999.2500    -999.2500
   1425.8544      13.1170     147.0650     694.5000      88.4380       0.4741    -999.2500    -999.2500       1.9854    -999.2500    -999.2500     133.1200    -999.2500    -999.2500
   1426.0068      13.0230     146.8587     696.0000      93.8750       0.4521    -999.2500    -999.2500       1.9775    -999.2500    -999.2500     135.1200    -999.2500    -999.2500
   1426.1592      13.1170     146.6566     696.0000      99.3130       0.4292    -999.2500    -999.2500       1.9707    -999.2500    -999.2500     134.6200    -999.2500    -999.2500
   1426.3116      13.0230     146.4503     668.5000      98.8750       0.5391    -999.2500    -999.2500       1.9580    -999.2500    -999.2500     134.5000    -999.2500    -999.2500
   1426.4640      12.9840     146.2530     699.0000      94.9380       0.5210    -999.2500    -999.2500       1.9531    -999.2500    -999.2500     134.5000    -999.2500    -999.2500
   1426.6165      12.9380     146.0397     679.0000      91.6880       0.5000    -999.2500    -999.2500       1.9541    -999.2500    -999.2500     135.6200    -999.2500    -999.2500
   1426.7688      12.9300     145.8480     688.0000      86.3130       0.4800    -999.2500    -999.2500       1.9482    -999.2500    -999.2500     133.8700    -999.2500    -999.2500
   1426.9211      12.9140     145.6349     -33.2190      87.5630       0.5156    -999.2500    -999.2500       1.9443    -999.2500    -999.2500     134.3700    -999.2500    -999.2500
   1427.0736      12.9770     145.4322     -33.6250      96.7500       0.5312    -999.2500    -999.2500       1.9434    -999.2500    -999.2500     134.8700    -999.2500    -999.2500
   1427.2260      13.5860     145.2249     -33.4060     101.5000       0.4819    -999.2500    -999.2500       1.9502    -999.2500    -999.2500     134.0000    -999.2500    -999.2500
   1427.3784      13.7660     145.0122     -33.2190     103.4400       0.4815    -999.2500    -999.2500       1.9463    -999.2500    -999.2500     134.5000    -999.2500    -999.2500
   1427.5308      13.6480     144.8192     -32.6250      96.1880       0.4766    -999.2500    -999.2500       1.9453    -999.2500    -999.2500     134.7500    -999.2500    -999.2500
   1427.6832      13.3360     144.6199     -33.6250      92.9380       0.4722    -999.2500    -999.2500       1.9463    -999.2500    -999.2500     135.2500    -999.2500    -999.2500
   1427.8356      13.1950     144.4084     -33.4060      90.8130       0.5059    -999.2500    -999.2500       1.9541    -999.2500    -999.2500     135.3700    -999.2500    -999.2500
   1427.9880      13.2340     144.2011     -32.4060      86.9380       0.4932    -999.2500    -999.2500       1.9561    -999.2500    -999.2500     135.0000    -999.2500    -999.2500
   1428.1404      13.5160     144.0005     -32.8130      87.6880       0.5151    -999.2500    -999.2500       1.9619    -999.2500    -999.2500     135.7500    -999.2500    -999.2500
