#------------------------------------------------------------------------------
#
#   Created by  : [OpenWorks] Log Export Utility (LEXP)
#   Created on  : 2011-12-19 12:32:06
#   Project     : AREA_58_60_21DEC
#   User        : AKAFU
#   Interpreter : AKAFU
#
#------------------------------------------------------------------------------
~VERSION INFORMATION
VERS. 2.0 : CWLS Log ASCII Standard - version 2.0
WRAP.  NO : One line per depth step
~WELL INFORMATION
#MNEMONIC   .UNIT                                           VALUE :DESCRIPTION
#------------------------------------------------------------------------------
STRT        .M                                             0.0000 :START DEPTH
STOP        .M                                          1999.9452 :STOP DEPTH
STEP        .M                                             0.1524 :STEP
NULL        .                                           -999.2500 :NULL VALUE
COMP        .                                             UNKNOWN :COMPANY
WELL        .                                          NO 15/9-13 :WELL
FLD         .                                            SLEIPNER :FIELD
LOC         .                                             UNKNOWN :LOCATION
CNTY        .                                             UNKNOWN :COUNTY
STAT        .                                             UNKNOWN :STATE
CTRY        .                                              Norway :COUNTRY
SRVC        .                                             UNKNOWN :SERVICE COMPANY
DATE        .                                             UNKNOWN :LOG DATE
UWI         .                                          NO 15/9-13 :UNIQUE WELL ID
XCOORD      .                                       437653.695349 :SURFACE X
YCOORD      .                                      6470978.020701 :SURFACE Y
LAT         .                                           58.373878 :LATITUDE
LON         .                                            1.934128 :LONGITUDE
ELEV        .M                                            25.0000 :SURFACE ELEV
ELEV_TYPE   .                                                  KB :ELEV TYPE
~CURVE INFORMATION
#MNEMONIC.UNIT        API CODE       : CURVE DESCRIPTION
#------------------------------------------------------------------------------
DEPTH    .M                          : Measured Depth
CALI     .inches                     : CALI:SFINX:rC:NONE:v1 
DT-CKS   .us/ft                      : DT-CKS:SFINX:rC:NONE:v1 
DT       .us/ft                      : DT:SFINX:rC:NONE:v1 
GR       .API                        : GR:SFINX:rC:NONE:v1 
NPHI     .v/v_decimal                : NPHI:SFINX:rC:NONE:v1 
PHIF     .v/v_decimal                : PHIF:SFINX:rC:NONE:v1 
RFT      .bar         UNKNOWN        : RFT:SFINX:rC:NONE:v1 
RHOB     .g/cm3                      : RHOB:SFINX:rC:NONE:v1 
RT       .ohm.m                      : RT:SFINX:rC:NONE:v1 
SAND     .unitless                   : SAND:SFINX:rC:NONE:v1 
SP       .mV                         : SP:SFINX:rC:NONE:v1 
SW       .v/v_decimal                : SW:SFINX:rC:NONE:v1 
VSH      .v/v_decimal                : VSH:SFINX:rC:NONE:v1 
~A     DEPTH         CALI       DT-CKS           DT           GR         NPHI         PHIF          RFT         RHOB           RT         SAND           SP           SW          VSH
# ...
   1937.9185      13.2110     139.9021     163.3700      72.6880       0.4785    -999.2500    -999.2500       2.0703    -999.2500    -999.2500     142.7500    -999.2500    -999.2500
   1938.0708      13.1640     139.9771     163.3700      77.1880       0.5049    -999.2500    -999.2500       2.0781    -999.2500    -999.2500     144.2500    -999.2500    -999.2500
   1938.2231      13.0550     139.9467     163.3700      77.1880       0.4995    -999.2500    -999.2500       2.0762    -999.2500    -999.2500     144.1200    -999.2500    -999.2500
   1938.3756      13.0940     139.1575     162.3700      78.2500       0.4961    -999.2500    -999.2500       2.0742    -999.2500    -999.2500     143.2500    -999.2500    -999.2500
   1938.5280      13.4840     139.0228     162.3700      77.3130       0.4648    -999.2500    -999.2500       2.0781    -999.2500    -999.2500     142.0000    -999.2500    -999.2500
   1938.6804      13.2340     139.5449     163.0000      80.2500       0.4570    -999.2500    -999.2500       2.0781    -999.2500    -999.2500     142.0000    -999.2500    -999.2500
   1938.8328      13.3980     139.9281     163.3700      80.8750       0.4702    -999.2500    -999.2500       2.0703    -999.2500    -999.2500     142.3700    -999.2500    -999.2500
   1938.9852      13.3750     140.1222     163.5000      81.0630       0.4653    -999.2500    -999.2500       2.0586    -999.2500    -999.2500     142.3700    -999.2500    -999.2500
   1939.1376      13.3520     140.5645     164.0000      80.2500       0.4502    -999.2500    -999.2500       2.0547    -999.2500    -999.2500     143.2500    -999.2500    -999.2500
   1939.2900      13.7970     141.1159     164.5000      76.7500       0.4429    -999.2500    -999.2500       2.0586    -999.2500    -999.2500     142.3700    -999.2500    -999.2500
   1939.4424      13.5390     141.8791     165.3700      74.1880       0.4683    -999.2500    -999.2500       2.0527    -999.2500    -999.2500     142.0000    -999.2500    -999.2500
   1939.5948      13.4840     142.6070     166.1200      72.0000       0.4976    -999.2500    -999.2500       2.0566    -999.2500    -999.2500     139.3700    -999.2500    -999.2500
   1939.7472      13.3750     142.3930     165.7500      76.1880       0.5142    -999.2500    -999.2500       2.0566    -999.2500    -999.2500     141.3700    -999.2500    -999.2500
   1939.8997      13.2890     141.6386     164.7500      80.6880       0.5088    -999.2500    -999.2500       2.0586    -999.2500    -999.2500     142.3700    -999.2500    -999.2500
   1940.0520      13.4450     142.1790     165.7500      79.6880       0.5239    -999.2500    -999.2500       2.0410    -999.2500    -999.2500     142.2500    -999.2500    -999.2500
   1940.2043      12.9530     142.1290     165.3700      78.3750       0.5205    -999.2500    -999.2500       2.0293    -999.2500    -999.2500     142.6200    -999.2500    -999.2500
   1940.3568      12.6880     142.5515     166.0000      79.4380       0.5029    -999.2500    -999.2500       2.0137    -999.2500    -999.2500     141.6200    -999.2500    -999.2500
   1940.5092      13.3050     142.7396     166.1200      83.1250       0.5215    -999.2500    -999.2500       2.0215    -999.2500    -999.2500     142.6200    -999.2500    -999.2500
   1940.6616      13.5550     142.6301     166.0000      85.0000       0.5259    -999.2500    -999.2500       2.0313    -999.2500    -999.2500     142.3700    -999.2500    -999.2500
   1940.8140      12.7420     142.2013     165.5000      82.0000       0.5635    -999.2500    -999.2500       2.0410    -999.2500    -999.2500     141.6200    -999.2500    -999.2500
   1940.9664      12.7420     141.7151     165.0000      79.6880       0.5322    -999.2500    -999.2500       2.0410    -999.2500    -999.2500     141.8700    -999.2500    -999.2500
   1941.1188      12.9140     141.4749     164.7500      85.5000       0.5024    -999.2500    -999.2500       2.0410    -999.2500    -999.2500     141.3700    -999.2500    -999.2500
   1941.2712      13.1410     141.7313     165.1200      86.6250       0.5176    -999.2500    -999.2500       2.0430    -999.2500    -999.2500     143.1200    -999.2500    -999.2500
   1941.4236      13.5550     141.9690     165.3700      93.8130       0.5102    -999.2500    -999.2500       2.0391    -999.2500    -999.2500     144.1200    -999.2500    -999.2500
   1941.5760      12.8590     141.9196     165.1200      87.3750       0.5317    -999.2500    -999.2500       2.0352    -999.2500    -999.2500     142.3700    -999.2500    -999.2500
   1941.7284      12.8200     142.4180     166.0000      84.8750       0.4815    -999.2500    -999.2500       2.0332    -999.2500    -999.2500     142.0000    -999.2500    -999.2500
   1941.8809      12.3750     141.8736     165.0000      79.0630       0.4888    -999.2500    -999.2500       2.0215    -999.2500    -999.2500     142.2500    -999.2500    -999.2500
   1942.0332      12.3050     142.0513     165.5000      77.1250       0.5117    -999.2500    -999.2500       2.0215    -999.2500    -999.2500     142.7500    -999.2500    -999.2500
   1942.1855      12.3590     141.8297     165.0000      77.6250       0.5425    -999.2500    -999.2500       2.0137    -999.2500    -999.2500     141.7500    -999.2500    -999.2500
   1942.3380      12.4220     142.3802     165.7500      77.9380       0.5718    -999.2500    -999.2500       2.0059    -999.2500    -999.2500     141.7500    -999.2500    -999.2500
   1942.4904      12.3750     143.0255     166.3700      72.9380       0.6216    -999.2500    -999.2500       1.9639    -999.2500    -999.2500     141.2500    -999.2500    -999.2500
   1942.6428      12.3130     143.6454     167.0000      67.5000       0.5894    -999.2500    -999.2500       1.8965    -999.2500    -999.2500     140.5000    -999.2500    -999.2500
   1942.7952      12.2580     144.5224     168.0000      59.6250       0.5835    -999.2500    -999.2500       1.8301    -999.2500    -999.2500     139.0000    -999.2500    -999.2500
   1942.9476      12.6170     144.6315     168.0000      61.2500       0.5000    -999.2500    -999.2500       1.7373    -999.2500    -999.2500     141.5000    -999.2500    -999.2500
   1943.1000      12.1720     144.1834     167.3700      65.3130       0.5283    -999.2500    -999.2500       1.7471    -999.2500    -999.2500     141.5000    -999.2500    -999.2500
   1943.2524      12.2580     144.1792     167.5000      66.1250       0.5513    -999.2500    -999.2500       1.8184    -999.2500    -999.2500     141.5000    -999.2500    -999.2500
   1943.4048      12.3590     144.0761     167.3700      66.6250       0.5464    -999.2500    -999.2500       1.9502    -999.2500    -999.2500     142.0000    -999.2500    -999.2500
   1943.5573      12.4690     143.8241     167.1200      65.1880       0.5220    -999.2500    -999.2500       2.0176    -999.2500    -999.2500     140.8700    -999.2500    -999.2500
   1943.7096      12.5940     143.4790     166.7500      70.8130       0.4844    -999.2500    -999.2500       2.0273    -999.2500    -999.2500     141.6200    -999.2500    -999.2500
   1943.8621      12.6090     143.2407     166.5000      70.0630       0.5190    -999.2500    -999.2500       2.0293    -999.2500    -999.2500     141.3700    -999.2500    -999.2500
   1944.0144      12.6170     143.0624     166.3700      67.5000       0.5430    -999.2500    -999.2500       2.0195    -999.2500    -999.2500     141.3700    -999.2500    -999.2500
   1944.1667      12.5000     142.4863     165.7500      63.2500       0.5283    -999.2500    -999.2500       2.0156    -999.2500    -999.2500     141.3700    -999.2500    -999.2500
   1944.3192      12.1880     141.9053     165.0000      63.6250       0.5000    -999.2500    -999.2500       2.0234    -999.2500    -999.2500     141.7500    -999.2500    -999.2500
   1944.4716      11.5860     142.1269     165.3700      67.6880       0.5645    -999.2500    -999.2500       2.0273    -999.2500    -999.2500     142.6200    -999.2500    -999.2500
