#------------------------------------------------------------------------------
#
#   Created by  : [OpenWorks] Log Export Utility (LEXP)
#   Created on  : 2002-04-08 13:44:35
#   Project     : AREA_58_60_21DEC
#   User        : G15173
#   Interpreter : RONHO
#
#------------------------------------------------------------------------------
~VERSION INFORMATION
VERS. 2.0 : CWLS Log ASCII Standard - version 2.0
WRAP.  NO : One line per depth step
~WELL INFORMATION
#MNEMONIC   .UNIT                                           VALUE :DESCRIPTION
#------------------------------------------------------------------------------
STRT        .M                                           575.3100 :START DEPTH
STOP        .M                                          3739.8960 :STOP DEPTH
STEP        .M                                             0.1524 :STEP
NULL        .                                           -999.2500 :NULL VALUE
COMP        .                                             UNKNOWN :COMPANY
WELL        .                                           15/9-A-16 :WELL
FLD         .                                            SLEIPNER :FIELD
LOC         .                                             UNKNOWN :LOCATION
CNTY        .                                             UNKNOWN :COUNTY
STAT        .                                             UNKNOWN :STATE
CTRY        .                                              Norway :COUNTRY
SRVC        .                                             UNKNOWN :SERVICE COMPANY
DATE        .                                             UNKNOWN :LOG DATE
UWI         .                                        NO 15/9-A-16 :UNIQUE WELL ID
XCOORD      .                                       436137.417107 :SURFACE X
YCOORD      .                                      6470282.857379 :SURFACE Y
LAT         .                                           58.367417 :LATITUDE
LON         .                                            1.908404 :LONGITUDE
ELEV        .M                                            78.0000 :SURFACE ELEV
ELEV_TYPE   .                                                  KB :ELEV TYPE
~CURVE INFORMATION
#MNEMONIC.UNIT        API CODE       : CURVE DESCRIPTION
#------------------------------------------------------------------------------
DEPTH    .M                          : Measured Depth
TVD      .M                          : True Vertical Depth (TVD)
GR       .API                        : GR:SFINX:rC:NONE:v1 
NPHI     .v/v_decimal                : NPHI:SFINX:rC:NONE:v1 
PHIF     .v/v_decimal                : PHIF:SFINX:rC:NONE:v1 
RHOB     .g/cm3                      : RHOB:SFINX:rC:NONE:v1 
RT       .ohm.m                      : RT:SFINX:rC:NONE:v1 
~A     DEPTH         TVD           GR         NPHI         PHIF         RHOB           RT
# ...
   1877.4156    923.6989      47.1140       0.3106       0.3812       2.0120       0.8920
   1877.5680    923.7254      47.2220       0.3121       0.3794       2.0170       0.9070
   1877.7203    923.7520      48.0200       0.3122       0.3717       2.0200       0.9140
   1877.8728    923.7786      49.6160       0.3137       0.3640       2.0260       0.9000
   1878.0251    923.8051      50.4140       0.3144       0.3564       2.0340       0.8970
   1878.1776    923.8317      48.3950       0.3148       0.3568       2.0520       0.8960
   1878.3300    923.8582      46.3650       0.3147       0.3572       2.0540       0.8960
   1878.4824    923.8848      42.3040       0.3071       0.3576       2.0690       0.8960
   1878.6348    923.9114      40.2740       0.2996       0.3606       2.0670       0.8960
   1878.7872    923.9379      42.0240       0.3016       0.3636       2.0440       0.9010
   1878.9396    923.9645      43.9970       0.3030       0.3667       2.0420       0.9060
   1879.0920    923.9911      47.9450       0.3149       0.3661       2.0430       0.9160
   1879.2444    924.0176      49.9180       0.3268       0.3655       2.0470       0.9210
   1879.3969    924.0442      51.2560       0.3383       0.3648       2.0500       0.9210
   1879.5492    924.0708      51.7140       0.3249       0.3642       2.0500       0.9200
   1879.7015    924.0974      52.4820       0.2982       0.3653       2.0490       0.9190
   1879.8540    924.1239      52.6820       0.2910       0.3663       2.0470       0.9180
   1880.0063    924.1505      52.7650       0.2742       0.3673       2.0470       0.9160
   1880.1588    924.1771      50.3440       0.2406       0.3675       2.0440       0.9110
   1880.3112    924.2036      49.1340       0.2388       0.3677       2.0410       0.9080
   1880.4636    924.2302      47.4420       0.2548       0.3679       2.0410       0.9040
   1880.6160    924.2567      49.8170       0.2628       0.3679       2.0410       0.9020
   1880.7684    924.2833      50.8470       0.2683       0.3679       2.0450       0.8960
   1880.9208    924.3099      50.2510       0.2683       0.3679       2.0450       0.8960
   1881.0732    924.3354      51.3270       0.2665       0.3679       2.0420       0.8960
   1881.2256    924.3610      51.7140       0.2663       0.3671       2.0420       0.8960
   1881.3781    924.3866      49.7660       0.2558       0.3663       2.0460       0.8970
   1881.5304    924.4122      47.8180       0.2543       0.3655       2.0490       0.8970
   1881.6827    924.4377      43.9230       0.2793       0.3648       2.0480       0.8990
   1881.8352    924.4633      43.2370       0.2860       0.3642       2.0460       0.9000
   1881.9875    924.4889      42.3380       0.2887       0.3636       2.0450       0.8930
   1882.1400    924.5145      41.8890       0.2866       0.3594       2.0450       0.8920
   1882.2924    924.5400      43.0880       0.2930       0.3552       2.0540       0.8740
   1882.4448    924.5656      44.7020       0.2948       0.3509       2.0560       0.8730
   1882.5972    924.5912      47.9290       0.2979       0.3506       2.0700       0.8690
   1882.7496    924.6168      48.7300       0.2723       0.3503       2.0710       0.8680
   1882.9020    924.6423      46.1630       0.2462       0.3500       2.0720       0.8510
   1883.0544    924.6679      43.5950       0.2584       0.3497       2.0730       0.8810
   1883.2068    924.6934      43.5090       0.2630       0.3529       2.0740       0.8970
   1883.3593    924.7191      44.7760       0.2820       0.3562       2.0690       0.9280
   1883.5116    924.7446      45.4090       0.2961       0.3594       2.0690       0.9290
   1883.6639    924.7701      46.8090       0.3201       0.3632       2.0540       0.9670
   1883.8164    924.7957      47.8050       0.3366       0.3671       2.0480       0.9860
   1883.9688    924.8213      49.7950       0.3396       0.3709       2.0380       1.0090
   1884.1212    924.8469      50.7640       0.3411       0.3644       2.0330       1.0170
   1884.2736    924.8724      52.6740       0.3334       0.3580       2.0420       1.0350
   1884.4260    924.8980      53.6290       0.3327       0.3515       2.0510       1.0440
   1884.5784    924.9236      55.1040       0.2918       0.3473       2.0670       1.1500
   1884.7308    924.9492      54.7660       0.2918       0.3430       2.0750       1.2030
   1884.8832    924.9747      54.0880       0.2585       0.3388       2.0880       1.2880
   1885.0356    925.0003      53.7500       0.2718       0.3345       2.0900       1.4550
   1885.1880    925.0259      57.8670       0.2966       0.3190       2.1050       1.7900
   1885.3405    925.0515      62.0230       0.3099       0.3034       2.1200       1.9570
   1885.4928    925.0770      64.0390       0.3271       0.2879       2.1480       2.1440
   1885.6451    925.1026      70.0760       0.3338       0.2743       2.1620       2.2970
   1885.7976    925.1282      77.4560       0.3438       0.2608       2.1850       2.5570
   1885.9500    925.1537      86.7700       0.3563       0.2473       2.2110       2.6320
   1886.1024    925.1783      99.5680       0.3771       0.2468       2.2240       2.6690
   1886.2548    925.2029     106.5740       0.4058       0.2464       2.2420       2.7440
   1886.4072    925.2275     106.5740       0.4225       0.2459       2.2440       2.7480
   1886.5596    925.2520     105.8530       0.4083       0.2455       2.2450       2.8140
   1886.7120    925.2766     105.2180       0.4075       0.2457       2.2450       2.8470
   1886.8644    925.3011     104.2300       0.3825       0.2459       2.2450       2.8380
   1887.0168    925.3257     103.7710       0.3700       0.2461       2.2440       2.8090
   1887.1692    925.3503     103.9160       0.3582       0.2410       2.2440       2.7660
   1887.3217    925.3749     103.9890       0.3550       0.2360       2.2490       3.1330
   1887.4740    925.3994     105.5020       0.3502       0.2309       2.2600       3.1570
   1887.6263    925.4240     106.9610       0.3611       0.2317       2.2650       3.1810
   1887.7788    925.4485     108.5890       0.3779       0.2325       2.2690       3.2550
   1887.9312    925.4731     109.0660       0.3872       0.2333       2.2680       3.2660
   1888.0836    925.4977     109.8290       0.4057       0.2318       2.2650       3.2540
   1888.2360    925.5223     109.2480       0.4090       0.2303       2.2630       3.2680
   1888.3884    925.5469     108.2920       0.4689       0.2288       2.2650       3.2910
   1888.5408    925.5714     108.0300       0.4812       0.2273       2.2660       3.2910
   1888.6932    925.5960     107.5070       0.4812       0.2267       2.2790       3.2910
   1888.8456    925.6205     107.3880       0.4812       0.2261       2.2800       3.2770
   1888.9980    925.6451     105.6180       0.4812       0.2255       2.2800       3.2490
   1889.1504    925.6697     104.4770       0.4812       0.2273       2.2780       3.2460
   1889.3029    925.6943     103.7810       0.4812       0.2291       2.2780       3.2510
   1889.4552    925.7188     102.8670       0.4778       0.2309       2.2710       3.2610
   1889.6075    925.7434     102.8380       0.4763       0.2329       2.2690       3.2690
   1889.7600    925.7680     102.7800       0.4680       0.2348       2.2630       3.2790
   1889.9124    925.7925     102.7770       0.4639       0.2368       2.2600       3.2530
   1890.0648    925.8171     101.9850       0.4402       0.2388       2.2560       3.2170
   1890.2172    925.8417     101.9180       0.4192       0.2372       2.2540       3.1910
   1890.3696    925.8663     104.0410       0.3773       0.2356       2.2540       3.1390
   1890.5220    925.8908     105.0820       0.3567       0.2339       2.2540       3.1340
   1890.6744    925.9154     106.9880       0.3567       0.2329       2.2620       2.9780
   1890.8268    925.9399     107.9410       0.3492       0.2319       2.2670       2.9540
