#------------------------------------------------------------------------------
#
#   Created by  : [OpenWorks] Log Export Utility (LEXP)
#   Created on  : 2011-12-19 12:32:06
#   Project     : AREA_58_60_21DEC
#   User        : AKAFU
#   Interpreter : AKAFU
#
#------------------------------------------------------------------------------
~VERSION INFORMATION
VERS. 2.0 : CWLS Log ASCII Standard - version 2.0
WRAP.  NO : One line per depth step
~WELL INFORMATION
#MNEMONIC   .UNIT                                           VALUE :DESCRIPTION
#------------------------------------------------------------------------------
STRT        .M                                             0.0000 :START DEPTH
STOP        .M                                          1999.9452 :STOP DEPTH
STEP        .M                                             0.1524 :STEP
NULL        .                                           -999.2500 :NULL VALUE
COMP        .                                             UNKNOWN :COMPANY
WELL        .                                          NO 15/9-13 :WELL
FLD         .                                            SLEIPNER :FIELD
LOC         .                                             UNKNOWN :LOCATION
CNTY        .                                             UNKNOWN :COUNTY
STAT        .                                             UNKNOWN :STATE
CTRY        .                                              Norway :COUNTRY
SRVC        .                                             UNKNOWN :SERVICE COMPANY
DATE        .                                             UNKNOWN :LOG DATE
UWI         .                                          NO 15/9-13 :UNIQUE WELL ID
XCOORD      .                                       437653.695349 :SURFACE X
YCOORD      .                                      6470978.020701 :SURFACE Y
LAT         .                                           58.373878 :LATITUDE
LON         .                                            1.934128 :LONGITUDE
ELEV        .M                                            25.0000 :SURFACE ELEV
ELEV_TYPE   .                                                  KB :ELEV TYPE
~CURVE INFORMATION
#MNEMONIC.UNIT        API CODE       : CURVE DESCRIPTION
#------------------------------------------------------------------------------
DEPTH    .M                          : Measured Depth
CALI     .inches                     : CALI:SFINX:rC:NONE:v1 
DT-CKS   .us/ft                      : DT-CKS:SFINX:rC:NONE:v1 
DT       .us/ft                      : DT:SFINX:rC:NONE:v1 
GR       .API                        : GR:SFINX:rC:NONE:v1 
NPHI     .v/v_decimal                : NPHI:SFINX:rC:NONE:v1 
PHIF     .v/v_decimal                : PHIF:SFINX:rC:NONE:v1 
RFT      .bar         UNKNOWN        : RFT:SFINX:rC:NONE:v1 
RHOB     .g/cm3                      : RHOB:SFINX:rC:NONE:v1 
RT       .ohm.m                      : RT:SFINX:rC:NONE:v1 
SAND     .unitless                   : SAND:SFINX:rC:NONE:v1 
SP       .mV                         : SP:SFINX:rC:NONE:v1 
SW       .v/v_decimal                : SW:SFINX:rC:NONE:v1 
VSH      .v/v_decimal                : VSH:SFINX:rC:NONE:v1 
~A     DEPTH         CALI       DT-CKS           DT           GR         NPHI         PHIF          RFT         RHOB           RT         SAND           SP           SW          VSH
# ...
   1877.5680      13.2810     133.7265     157.3700      82.0000       0.5102    -999.2500    -999.2500       2.1406    -999.2500    -999.2500     142.1200    -999.2500    -999.2500
   1877.7205      13.1720     136.0525     159.5000      81.5000       0.5107    -999.2500    -999.2500       2.1113    -999.2500    -999.2500     143.7500    -999.2500    -999.2500
   1877.8728      13.1250     139.6037     163.7500      86.3750       0.5112    -999.2500    -999.2500       2.0723    -999.2500    -999.2500     143.0000    -999.2500    -999.2500
   1878.0251      13.1880     141.7042     165.5000      85.5630       0.4966    -999.2500    -999.2500       2.0430    -999.2500    -999.2500     142.3700    -999.2500    -999.2500
   1878.1776      12.9140     141.8694     165.3700      85.1250       0.4873    -999.2500    -999.2500       2.0410    -999.2500    -999.2500     141.6200    -999.2500    -999.2500
   1878.3300      12.9770     141.2162     164.5000      81.8130       0.4976    -999.2500    -999.2500       2.0293    -999.2500    -999.2500     141.0000    -999.2500    -999.2500
   1878.4824      13.1880     141.4554     165.1200      80.6250       0.5371    -999.2500    -999.2500       2.0293    -999.2500    -999.2500     141.6200    -999.2500    -999.2500
   1878.6348      13.1410     141.0702     164.3700      79.4380       0.5229    -999.2500    -999.2500       2.0020    -999.2500    -999.2500     141.2500    -999.2500    -999.2500
   1878.7872      12.5230     141.7657     165.1200      82.3750       0.5151    -999.2500    -999.2500       2.0215    -999.2500    -999.2500     141.3700    -999.2500    -999.2500
   1878.9396      12.4770     145.3856     169.5000      79.3750       0.4893    -999.2500    -999.2500       2.0488    -999.2500    -999.2500     141.0000    -999.2500    -999.2500
   1879.0920      12.8360     146.9321     171.3700      83.5630       0.4785    -999.2500    -999.2500       2.0703    -999.2500    -999.2500     140.5000    -999.2500    -999.2500
   1879.2444      12.6640     141.6331     163.7500      87.1250       0.5479    -999.2500    -999.2500       2.0684    -999.2500    -999.2500     139.2500    -999.2500    -999.2500
   1879.3969      12.6800     141.2299     165.0000      88.0000       0.5479    -999.2500    -999.2500       2.0605    -999.2500    -999.2500     141.3700    -999.2500    -999.2500
   1879.5492      13.4300     140.2938     163.7500      83.3130       0.5630    -999.2500    -999.2500       2.0508    -999.2500    -999.2500     141.8700    -999.2500    -999.2500
   1879.7017      13.9530     138.5781     161.5000      79.6880       0.5278    -999.2500    -999.2500       2.0430    -999.2500    -999.2500     142.2500    -999.2500    -999.2500
   1879.8540      13.7730     139.6635     163.5000      86.8130       0.5483    -999.2500    -999.2500       2.0410    -999.2500    -999.2500     142.1200    -999.2500    -999.2500
   1880.0063      13.2190     140.2085     163.7500      86.5000       0.6435    -999.2500    -999.2500       2.0547    -999.2500    -999.2500     140.6200    -999.2500    -999.2500
   1880.1588      12.9770     140.4715     164.0000      85.8130       0.5991    -999.2500    -999.2500       2.0605    -999.2500    -999.2500     141.3700    -999.2500    -999.2500
   1880.3112      12.7110     140.8681     164.3700      81.2500       0.5601    -999.2500    -999.2500       2.0605    -999.2500    -999.2500     141.3700    -999.2500    -999.2500
   1880.4636      12.7970     141.7532     165.5000      85.1250       0.4771    -999.2500    -999.2500       2.0566    -999.2500    -999.2500     141.6200    -999.2500    -999.2500
   1880.6160      12.5230     141.6465     165.1200      86.3130       0.5361    -999.2500    -999.2500       2.0527    -999.2500    -999.2500     141.2500    -999.2500    -999.2500
   1880.7684      12.4450     141.2969     164.7500      84.1250       0.5713    -999.2500    -999.2500       2.0586    -999.2500    -999.2500     141.2500    -999.2500    -999.2500
   1880.9208      12.5860     141.1726     164.7500      86.8750       0.5557    -999.2500    -999.2500       2.0703    -999.2500    -999.2500     142.8700    -999.2500    -999.2500
   1881.0732      12.6410     140.7312     164.1200      85.7500       0.5073    -999.2500    -999.2500       2.0723    -999.2500    -999.2500     142.8700    -999.2500    -999.2500
   1881.2256      12.8360     140.7913     164.3700      91.0000       0.4873    -999.2500    -999.2500       2.0723    -999.2500    -999.2500     141.7500    -999.2500    -999.2500
   1881.3781      12.8130     140.5691     164.0000      83.5630       0.5181    -999.2500    -999.2500       2.0723    -999.2500    -999.2500     141.6200    -999.2500    -999.2500
   1881.5304      12.7500     140.9988     164.5000      83.0000       0.5078    -999.2500    -999.2500       2.0801    -999.2500    -999.2500     142.3700    -999.2500    -999.2500
   1881.6827      12.8360     142.0559     165.7500      81.6250       0.5737    -999.2500    -999.2500       2.0879    -999.2500    -999.2500     142.3700    -999.2500    -999.2500
   1881.8352      12.8200     142.8478     166.5000      88.3130       0.5635    -999.2500    -999.2500       2.0859    -999.2500    -999.2500     141.7500    -999.2500    -999.2500
   1881.9875      12.9060     143.2145     166.7500      86.2500       0.5781    -999.2500    -999.2500       2.0918    -999.2500    -999.2500     142.2500    -999.2500    -999.2500
   1882.1400      12.8830     143.7262     167.5000      80.6880       0.5684    -999.2500    -999.2500       2.1035    -999.2500    -999.2500     141.3700    -999.2500    -999.2500
   1882.2924      12.9140     142.8524     166.1200      71.4380       0.4956    -999.2500    -999.2500       2.1895    -999.2500    -999.2500     141.1200    -999.2500    -999.2500
   1882.4448      12.7970     143.1114     166.7500      68.0630       0.4629    -999.2500    -999.2500       2.3027    -999.2500    -999.2500     138.5000    -999.2500    -999.2500
   1882.5972      12.7030     143.4123     167.1200      65.1880       0.4067    -999.2500    -999.2500       2.3945    -999.2500    -999.2500     141.8700    -999.2500    -999.2500
   1882.7496      12.6170     142.0970     165.3700      69.7500       0.4741    -999.2500    -999.2500       2.2363    -999.2500    -999.2500     141.3700    -999.2500    -999.2500
   1882.9020      12.5940     141.6231     165.1200      73.8750       0.5034    -999.2500    -999.2500       2.1465    -999.2500    -999.2500     141.6200    -999.2500    -999.2500
   1883.0544      12.9610     141.0872     164.5000      76.3130       0.5259    -999.2500    -999.2500       2.0469    -999.2500    -999.2500     141.6200    -999.2500    -999.2500
   1883.2068      12.9380     141.4454     165.1200      75.1880       0.5156    -999.2500    -999.2500       2.0586    -999.2500    -999.2500     140.2500    -999.2500    -999.2500
   1883.3593      12.7730     141.2317     164.7500      80.9380       0.4722    -999.2500    -999.2500       2.0801    -999.2500    -999.2500     144.3700    -999.2500    -999.2500
   1883.5116      12.8200     140.8361     164.3700      80.2500       0.4775    -999.2500    -999.2500       2.0840    -999.2500    -999.2500     143.7500    -999.2500    -999.2500
   1883.6639      12.7660     138.1873     161.7500      85.1880       0.4780    -999.2500    -999.2500       2.0918    -999.2500    -999.2500     141.7500    -999.2500    -999.2500
   1883.8164      12.7970     125.1478     146.3700      74.1250       0.4907    -999.2500    -999.2500       2.1172    -999.2500    -999.2500     141.6200    -999.2500    -999.2500
   1883.9688      12.8910     120.5069     143.7500      74.9380       0.4658    -999.2500    -999.2500       2.1660    -999.2500    -999.2500     143.0000    -999.2500    -999.2500
   1884.1212      13.1250     118.8518     142.0000      67.3750       0.4556    -999.2500    -999.2500       2.1992    -999.2500    -999.2500     143.6200    -999.2500    -999.2500
