#------------------------------------------------------------------------------
#
#   Created by  : [OpenWorks] Log Export Utility (LEXP)
#   Created on  : 2011-12-19 12:32:06
#   Project     : AREA_58_60_21DEC
#   User        : AKAFU
#   Interpreter : AKAFU
#
#------------------------------------------------------------------------------
~VERSION INFORMATION
VERS. 2.0 : CWLS Log ASCII Standard - version 2.0
WRAP.  NO : One line per depth step
~WELL INFORMATION
#MNEMONIC   .UNIT                                           VALUE :DESCRIPTION
#------------------------------------------------------------------------------
STRT        .M                                             0.0000 :START DEPTH
STOP        .M                                          1999.9452 :STOP DEPTH
STEP        .M                                             0.1524 :STEP
NULL        .                                           -999.2500 :NULL VALUE
COMP        .                                             UNKNOWN :COMPANY
WELL        .                                          NO 15/9-13 :WELL
FLD         .                                            SLEIPNER :FIELD
LOC         .                                             UNKNOWN :LOCATION
CNTY        .                                             UNKNOWN :COUNTY
STAT        .                                             UNKNOWN :STATE
CTRY        .                                              Norway :COUNTRY
SRVC        .                                             UNKNOWN :SERVICE COMPANY
DATE        .                                             UNKNOWN :LOG DATE
UWI         .                                          NO 15/9-13 :UNIQUE WELL ID
XCOORD      .                                       437653.695349 :SURFACE X
YCOORD      .                                      6470978.020701 :SURFACE Y
LAT         .                                           58.373878 :LATITUDE
LON         .                                            1.934128 :LONGITUDE
ELEV        .M                                            25.0000 :SURFACE ELEV
ELEV_TYPE   .                                                  KB :ELEV TYPE
~CURVE INFORMATION
#MNEMONIC.UNIT        API CODE       : CURVE DESCRIPTION
#------------------------------------------------------------------------------
DEPTH    .M                          : Measured Depth
CALI     .inches                     : CALI:SFINX:rC:NONE:v1 
DT-CKS   .us/ft                      : DT-CKS:SFINX:rC:NONE:v1 
DT       .us/ft                      : DT:SFINX:rC:NONE:v1 
GR       .API                        : GR:SFINX:rC:NONE:v1 
NPHI     .v/v_decimal                : NPHI:SFINX:rC:NONE:v1 
PHIF     .v/v_decimal                : PHIF:SFINX:rC:NONE:v1 
RFT      .bar         UNKNOWN        : RFT:SFINX:rC:NONE:v1 
RHOB     .g/cm3                      : RHOB:SFINX:rC:NONE:v1 
RT       .ohm.m                      : RT:SFINX:rC:NONE:v1 
SAND     .unitless                   : SAND:SFINX:rC:NONE:v1 
SP       .mV                         : SP:SFINX:rC:NONE:v1 
SW       .v/v_decimal                : SW:SFINX:rC:NONE:v1 
VSH      .v/v_decimal                : VSH:SFINX:rC:NONE:v1 
~A     DEPTH         CALI       DT-CKS           DT           GR         NPHI         PHIF          RFT         RHOB           RT         SAND           SP           SW          VSH
# ...
   1535.5824      14.3440     135.8809     147.1200      73.2500       0.4771    -999.2500    -999.2500       1.9990    -999.2500    -999.2500     135.5000    -999.2500    -999.2500
   1535.7347      14.5550     133.0209     145.3700      73.5000       0.4209    -999.2500    -999.2500       2.0039    -999.2500    -999.2500     135.7500    -999.2500    -999.2500
   1535.8872      14.6090     131.1232     142.1200      69.0630       0.4351    -999.2500    -999.2500       2.0195    -999.2500    -999.2500     136.0000    -999.2500    -999.2500
   1536.0396      14.5390     131.9977     143.5000      66.8130       0.4482    -999.2500    -999.2500       2.0215    -999.2500    -999.2500     136.2500    -999.2500    -999.2500
   1536.1920      14.5550     133.8990     145.3700      65.8130       0.4468    -999.2500    -999.2500       2.0234    -999.2500    -999.2500     138.5000    -999.2500    -999.2500
   1536.3444      14.6800     135.8919     147.5000      70.8750       0.4463    -999.2500    -999.2500       2.0410    -999.2500    -999.2500     137.5000    -999.2500    -999.2500
   1536.4968      14.6020     137.5683     149.1200      74.6250       0.4507    -999.2500    -999.2500       2.0703    -999.2500    -999.2500     136.8700    -999.2500    -999.2500
   1536.6492      14.2270     139.3782     150.7500      69.4380       0.4878    -999.2500    -999.2500       2.1074    -999.2500    -999.2500     136.5000    -999.2500    -999.2500
   1536.8016      14.1170     141.0199     153.5000      66.7500       0.4741    -999.2500    -999.2500       2.0879    -999.2500    -999.2500     136.2500    -999.2500    -999.2500
   1536.9540      14.2580     140.6968     152.1200      63.4380       0.4815    -999.2500    -999.2500       2.0586    -999.2500    -999.2500     136.3700    -999.2500    -999.2500
   1537.1064      14.6800     141.1391     152.7500      71.5000       0.4497    -999.2500    -999.2500       2.0156    -999.2500    -999.2500     136.1200    -999.2500    -999.2500
   1537.2588      14.9770     141.5463     153.7500      70.3750       0.4365    -999.2500    -999.2500       2.0078    -999.2500    -999.2500     136.0000    -999.2500    -999.2500
   1537.4113      14.3520     141.5258     152.5000      70.1880       0.4185    -999.2500    -999.2500       2.0039    -999.2500    -999.2500     135.3700    -999.2500    -999.2500
   1537.5636      14.9060     142.5860     155.0000      72.8130       0.4419    -999.2500    -999.2500       2.0059    -999.2500    -999.2500     134.1200    -999.2500    -999.2500
   1537.7159      14.5160     141.9812     153.7500      72.7500       0.4551    -999.2500    -999.2500       2.0098    -999.2500    -999.2500     133.6200    -999.2500    -999.2500
   1537.8684      14.5310     142.4427     153.1200      73.5000       0.5166    -999.2500    -999.2500       2.0176    -999.2500    -999.2500     135.7500    -999.2500    -999.2500
   1538.0208      14.0080     145.0088     157.1200      68.3750       0.4995    -999.2500    -999.2500       2.0117    -999.2500    -999.2500     136.0000    -999.2500    -999.2500
   1538.1732      14.0550     145.9568     158.1200      73.0000       0.4902    -999.2500    -999.2500       1.9932    -999.2500    -999.2500     135.6200    -999.2500    -999.2500
   1538.3256      14.0000     145.0308     157.1200      71.6250       0.4116    -999.2500    -999.2500       1.9775    -999.2500    -999.2500     136.6200    -999.2500    -999.2500
   1538.4780      14.2270     143.2986     155.5000      70.7500       0.4297    -999.2500    -999.2500       1.9707    -999.2500    -999.2500     135.0000    -999.2500    -999.2500
   1538.6304      14.4840     137.7801     153.5000      66.0000       0.4209    -999.2500    -999.2500       1.9746    -999.2500    -999.2500     135.3700    -999.2500    -999.2500
   1538.7828      14.5080     125.5041     136.0000      64.0000       0.4868    -999.2500    -999.2500       1.9902    -999.2500    -999.2500     135.5000    -999.2500    -999.2500
   1538.9352      14.3910     121.3640     132.7500      57.3750       0.4565    -999.2500    -999.2500       2.0254    -999.2500    -999.2500     135.5000    -999.2500    -999.2500
   1539.0876      13.9840     121.3463     132.7500      57.1250       0.4658    -999.2500    -999.2500       2.0996    -999.2500    -999.2500     135.8700    -999.2500    -999.2500
   1539.2400      14.1880     125.1868     134.0000      54.6880       0.3989    -999.2500    -999.2500       2.1699    -999.2500    -999.2500     135.8700    -999.2500    -999.2500
   1539.3925      14.3750     134.2764     147.5000      62.8440       0.4287    -999.2500    -999.2500       2.1543    -999.2500    -999.2500     137.6200    -999.2500    -999.2500
   1539.5448      14.7500     136.5926     149.5000      66.1880       0.4116    -999.2500    -999.2500       2.0898    -999.2500    -999.2500     137.1200    -999.2500    -999.2500
   1539.6971      15.0160     134.7711     146.3700      71.3130       0.4946    -999.2500    -999.2500       2.0254    -999.2500    -999.2500     136.2500    -999.2500    -999.2500
   1539.8496      14.9300     134.2212     145.7500      69.4380       0.4482    -999.2500    -999.2500       2.0215    -999.2500    -999.2500     136.5000    -999.2500    -999.2500
   1540.0020      14.2580     134.9933     146.5000      69.6880       0.4951    -999.2500    -999.2500       2.0293    -999.2500    -999.2500     136.1200    -999.2500    -999.2500
   1540.1544      14.3980     136.6081     148.1200      66.5630       0.4790    -999.2500    -999.2500       2.0469    -999.2500    -999.2500     134.5000    -999.2500    -999.2500
   1540.3068      14.3910     138.5101     150.0000      69.5000       0.5405    -999.2500    -999.2500       2.0566    -999.2500    -999.2500     133.5000    -999.2500    -999.2500
   1540.4592      14.5630     140.2091     152.0000      71.6880       0.5054    -999.2500    -999.2500       2.0430    -999.2500    -999.2500     135.8700    -999.2500    -999.2500
   1540.6116      14.8200     141.3936     153.3700      72.2500       0.4834    -999.2500    -999.2500       2.0293    -999.2500    -999.2500     135.8700    -999.2500    -999.2500
   1540.7640      14.6950     141.9928     153.5000      72.7500       0.4639    -999.2500    -999.2500       2.0176    -999.2500    -999.2500     136.1200    -999.2500    -999.2500
   1540.9164      14.6560     142.7124     154.7500      71.0630       0.5098    -999.2500    -999.2500       2.0000    -999.2500    -999.2500     136.0000    -999.2500    -999.2500
   1541.0688      14.3670     142.8475     154.5000      72.7500       0.4898    -999.2500    -999.2500       1.9961    -999.2500    -999.2500     135.6200    -999.2500    -999.2500
   1541.2212      14.2810     143.2038     155.1200      71.4380       0.4946    -999.2500    -999.2500       1.9951    -999.2500    -999.2500     135.7500    -999.2500    -999.2500
   1541.3737      14.4840     143.2617     155.1200      70.1880       0.4941    -999.2500    -999.2500       2.0234    -999.2500    -999.2500     135.6200    -999.2500    -999.2500
   1541.5260      14.6250     143.0462     155.0000      73.8750       0.4805    -999.2500    -999.2500       2.0234    -999.2500    -999.2500     136.2500    -999.2500    -999.2500
   1541.6783      14.5780     142.3823     154.5000      75.3750       0.4712    -999.2500    -999.2500       2.0254    -999.2500    -999.2500     135.7500    -999.2500    -999.2500
   1541.8308      14.2270     141.4774     153.1200      79.7500       0.4473    -999.2500    -999.2500       2.0254    -999.2500    -999.2500     135.5000    -999.2500    -999.2500
   1541.9832      14.4840     141.3430     153.1200      78.9380       0.4663    -999.2500    -999.2500       2.0273    -999.2500    -999.2500     135.1200    -999.2500    -999.2500
   1542.1356      14.4450     141.5252     153.3700      80.2500       0.4463    -999.2500    -999.2500       2.0137    -999.2500    -999.2500     135.6200    -999.2500    -999.2500
