#------------------------------------------------------------------------------
#
#   Created by  : [OpenWorks] Log Export Utility (LEXP)
#   Created on  : 2002-04-08 13:44:35
#   Project     : AREA_58_60_21DEC
#   User        : G15173
#   Interpreter : RONHO
#
#------------------------------------------------------------------------------
~VERSION INFORMATION
VERS. 2.0 : CWLS Log ASCII Standard - version 2.0
WRAP.  NO : One line per depth step
~WELL INFORMATION
#MNEMONIC   .UNIT                                           VALUE :DESCRIPTION
#------------------------------------------------------------------------------
STRT        .M                                           575.3100 :START DEPTH
STOP        .M                                          3739.8960 :STOP DEPTH
STEP        .M                                             0.1524 :STEP
NULL        .                                           -999.2500 :NULL VALUE
COMP        .                                             UNKNOWN :COMPANY
WELL        .                                           15/9-A-16 :WELL
FLD         .                                            SLEIPNER :FIELD
LOC         .                                             UNKNOWN :LOCATION
CNTY        .                                             UNKNOWN :COUNTY
STAT        .                                             UNKNOWN :STATE
CTRY        .                                              Norway :COUNTRY
SRVC        .                                             UNKNOWN :SERVICE COMPANY
DATE        .                                             UNKNOWN :LOG DATE
UWI         .                                        NO 15/9-A-16 :UNIQUE WELL ID
XCOORD      .                                       436137.417107 :SURFACE X
YCOORD      .                                      6470282.857379 :SURFACE Y
LAT         .                                           58.367417 :LATITUDE
LON         .                                            1.908404 :LONGITUDE
ELEV        .M                                            78.0000 :SURFACE ELEV
ELEV_TYPE   .                                                  KB :ELEV TYPE
~CURVE INFORMATION
#MNEMONIC.UNIT        API CODE       : CURVE DESCRIPTION
#------------------------------------------------------------------------------
DEPTH    .M                          : Measured Depth
TVD      .M                          : True Vertical Depth (TVD)
GR       .API                        : GR:SFINX:rC:NONE:v1 
NPHI     .v/v_decimal                : NPHI:SFINX:rC:NONE:v1 
PHIF     .v/v_decimal                : PHIF:SFINX:rC:NONE:v1 
RHOB     .g/cm3                      : RHOB:SFINX:rC:NONE:v1 
RT       .ohm.m                      : RT:SFINX:rC:NONE:v1 
~A     DEPTH         TVD           GR         NPHI         PHIF         RHOB           RT
# ...
    846.5820    746.3627     119.8320       0.4337    -999.2500       2.1480       1.7240
    846.7344    746.4366     119.5270       0.4374    -999.2500       2.1490       1.7380
    846.8868    746.5106     118.9180       0.4684    -999.2500       2.1470       1.7650
    847.0392    746.5846     118.6130       0.4924    -999.2500       2.1450       1.7790
    847.1916    746.6586     118.1020       0.5238    -999.2500       2.1420       1.8070
    847.3440    746.7325     117.9910       0.5238    -999.2500       2.1400       1.8130
    847.4964    746.8065     117.7680       0.5417    -999.2500       2.1370       1.8590
    847.6488    746.8805     117.6560       0.5597    -999.2500       2.1350       1.8810
    847.8012    746.9545     117.4330       0.5955    -999.2500       2.1350       1.9210
    847.9536    747.0284     117.2890       0.6314    -999.2500       2.1360       1.9120
    848.1060    747.1024     115.9230       0.6461    -999.2500       2.1370       1.9080
    848.2584    747.1763     113.1900       0.6576    -999.2500       2.1240       1.8990
    848.4108    747.2503     111.8240       0.6692    -999.2500       2.1110       1.8990
    848.5632    747.3243     109.0920       0.6923    -999.2500       2.0790       1.9050
    848.7156    747.3983     108.8800       0.7039    -999.2500       2.0740       1.9090
    848.8680    747.4722     108.8530       0.7205    -999.2500       2.0690       1.9150
    849.0204    747.5461     108.4730       0.7205    -999.2500       2.0660       1.9190
    849.1728    747.6201     111.0950       0.5941    -999.2500       2.0630       1.9250
    849.3252    747.6941     111.0950       0.5308    -999.2500       2.0680       1.9300
    849.4776    747.7681     112.0530       0.4336    -999.2500       2.0750       1.9380
    849.6300    747.8420     113.2380       0.4336    -999.2500       2.0770       1.9430
    849.7824    747.9160     113.2610       0.4474    -999.2500       2.0810       1.9500
    849.9348    747.9900     112.3070       0.4612    -999.2500       2.0810       1.9540
    850.0872    748.0623     110.4000       0.4836    -999.2500       2.0780       1.9640
    850.2396    748.1345     109.4470       0.4709    -999.2500       2.0760       1.9680
    850.3920    748.2067     107.5400       0.4495    -999.2500       2.0700       2.0270
    850.5444    748.2789     107.1170       0.4495    -999.2500       2.0660       2.0370
    850.6968    748.3512     109.3440       0.4376    -999.2500       2.0600       2.0450
    850.8492    748.4234     110.4570       0.4257    -999.2500       2.0590       2.0400
    851.0016    748.4957     112.6850       0.4045    -999.2500       2.0560       1.9960
    851.1540    748.5679     114.9120       0.4150    -999.2500       2.0540       1.9620
    851.3064    748.6401     114.9830       0.4203    -999.2500       2.0530       1.9280
    851.4588    748.7124     114.5820       0.4274    -999.2500       2.0530       1.8590
    851.6112    748.7846     114.3820       0.4284    -999.2500       2.0480       1.8550
    851.7636    748.8569     113.9810       0.4311    -999.2500       2.0410       1.8770
    851.9160    748.9291     113.7810       0.4348    -999.2500       2.0340       1.8870
    852.0684    749.0013     113.4910       0.4373    -999.2500       2.0310       1.9080
    852.2208    749.0736     112.1220       0.4387    -999.2500       2.0290       1.9190
    852.3732    749.1458     109.3850       0.4246    -999.2500       2.0310       1.9110
    852.5256    749.2181     108.0160       0.4228    -999.2500       2.0310       1.8960
    852.6780    749.2903     105.2780       0.4118    -999.2500       2.0320       1.8650
    852.8304    749.3625     103.9100       0.4063    -999.2500       2.0340       1.8500
    852.9828    749.4348     101.8520       0.4543    -999.2500       2.0370       1.8190
    853.1352    749.5070     100.9270       0.5028    -999.2500       2.0380       1.8130
    853.2876    749.5793      99.0780       0.5246    -999.2500       2.0550       1.8360
    853.4400    749.6515      98.7080       0.5039    -999.2500       2.0630       1.8470
    853.5924    749.7238     100.2870       0.4848    -999.2500       2.0790       1.8700
    853.7448    749.7960     101.0770       0.4848    -999.2500       2.0880       1.8820
    853.8972    749.8682     102.6560       0.4323    -999.2500       2.0890       1.9040
    854.0496    749.9405     103.0480       0.4193    -999.2500       2.0910       1.9100
    854.2020    750.0127     103.0480       0.4363    -999.2500       2.0970       1.9150
    854.3544    750.0850     101.5090       0.4587    -999.2500       2.0990       1.9210
    854.5068    750.1572      99.9700       0.4587    -999.2500       2.0990       1.9230
    854.6592    750.2294      96.8920       0.4269    -999.2500       2.0700       1.9270
    854.8116    750.3016      95.3530       0.4251    -999.2500       2.0560       1.9350
    854.9640    750.3739      96.7080       0.4369    -999.2500       2.0290       1.9520
    855.1164    750.4456      99.0480       0.4423    -999.2500       2.0270       1.9610
    855.2688    750.5173     103.7270       0.5002    -999.2500       2.0380       1.9600
    855.4212    750.5890     104.2230       0.5581    -999.2500       2.0430       1.9530
    855.5736    750.6607     105.1950       0.5862    -999.2500       2.0410       1.9400
    855.7260    750.7324     105.1950       0.5710    -999.2500       2.0340       1.9380
    855.8784    750.8041     104.3500       0.5449    -999.2500       2.0210       1.9310
    856.0308    750.8758     103.3640       0.5369    -999.2500       2.0190       1.9270
    856.1832    750.9475     103.2480       0.5209    -999.2500       2.0140       1.9390
    856.3356    751.0192     103.1900       0.5129    -999.2500       2.0120       1.9500
    856.4880    751.0909     102.0560       0.4969    -999.2500       2.0060       1.9740
    856.6404    751.1626     100.9290       0.4889    -999.2500       2.0050       1.9850
    856.7928    751.2343     100.6570       0.4812    -999.2500       2.0130       1.9880
    856.9452    751.3060     101.4310       0.4810    -999.2500       2.0180       1.9810
    857.0976    751.3777     102.7770       0.4804    -999.2500       2.0270       1.9550
    857.2500    751.4494     102.5090       0.4802    -999.2500       2.0280       1.9370
    857.4024    751.5211     101.9740       0.4799    -999.2500       2.0290       1.9100
    857.5548    751.5928     102.6350       0.5114    -999.2500       2.0320       1.8820
    857.7072    751.6645     103.4430       0.5271    -999.2500       2.0320       1.8770
    857.8596    751.7362     104.5400       0.5485    -999.2500       2.0390       1.8690
    858.0120    751.8079     104.1330       0.5449    -999.2500       2.0430       1.8660
    858.1644    751.8796     103.3200       0.5377    -999.2500       2.0520       1.8780
    858.3168    751.9513     103.2510       0.5371    -999.2500       2.0530       1.8840
    858.4692    752.0229     105.5000       0.3758    -999.2500       2.0620       1.8940
    858.6216    752.0947     106.6240       0.3912    -999.2500       2.0660       1.9000
    858.7740    752.1664     107.8470       0.4220    -999.2500       2.0720       1.9100
    858.9264    752.2381     108.2390       0.4261    -999.2500       2.0770       1.9220
    859.0788    752.3098     108.8460       0.4376    -999.2500       2.0880       1.9460
    859.2312    752.3815     108.5280       0.4492    -999.2500       2.0980       1.9500
    859.3836    752.4532     108.0210       0.4677    -999.2500       2.1070       1.9470
    859.5360    752.5249     108.0210       0.4677    -999.2500       2.1080       1.9450
    859.6884    752.5966     106.5740       0.4646    -999.2500       2.1120       1.9500
    859.8408    752.6683     106.9290       0.4614    -999.2500       2.1150       1.9560
    859.9932    752.7400     107.6380       0.4561    -999.2500       2.1170       1.9670
