#------------------------------------------------------------------------------
#
#   Created by  : [OpenWorks] Log Export Utility (LEXP)
#   Created on  : 2011-12-19 12:32:06
#   Project     : AREA_58_60_21DEC
#   User        : AKAFU
#   Interpreter : AKAFU
#
#------------------------------------------------------------------------------
~VERSION INFORMATION
VERS. 2.0 : CWLS Log ASCII Standard - version 2.0
WRAP.  NO : One line per depth step
~WELL INFORMATION
#MNEMONIC   .UNIT                                           VALUE :DESCRIPTION
#------------------------------------------------------------------------------
STRT        .M                                             0.0000 :START DEPTH
STOP        .M                                          1999.9452 :STOP DEPTH
STEP        .M                                             0.1524 :STEP
NULL        .                                           -999.2500 :NULL VALUE
COMP        .                                             UNKNOWN :COMPANY
WELL        .                                          NO 15/9-13 :WELL
FLD         .                                            SLEIPNER :FIELD
LOC         .                                             UNKNOWN :LOCATION
CNTY        .                                             UNKNOWN :COUNTY
STAT        .                                             UNKNOWN :STATE
CTRY        .                                              Norway :COUNTRY
SRVC        .                                             UNKNOWN :SERVICE COMPANY
DATE        .                                             UNKNOWN :LOG DATE
UWI         .                                          NO 15/9-13 :UNIQUE WELL ID
XCOORD      .                                       437653.695349 :SURFACE X
YCOORD      .                                      6470978.020701 :SURFACE Y
LAT         .                                           58.373878 :LATITUDE
LON         .                                            1.934128 :LONGITUDE
ELEV        .M                                            25.0000 :SURFACE ELEV
ELEV_TYPE   .                                                  KB :ELEV TYPE
~CURVE INFORMATION
#MNEMONIC.UNIT        API CODE       : CURVE DESCRIPTION
#------------------------------------------------------------------------------
DEPTH    .M                          : Measured Depth
CALI     .inches                     : CALI:SFINX:rC:NONE:v1 
DT-CKS   .us/ft                      : DT-CKS:SFINX:rC:NONE:v1 
DT       .us/ft                      : DT:SFINX:rC:NONE:v1 
GR       .API                        : GR:SFINX:rC:NONE:v1 
NPHI     .v/v_decimal                : NPHI:SFINX:rC:NONE:v1 
PHIF     .v/v_decimal                : PHIF:SFINX:rC:NONE:v1 
RFT      .bar         UNKNOWN        : RFT:SFINX:rC:NONE:v1 
RHOB     .g/cm3                      : RHOB:SFINX:rC:NONE:v1 
RT       .ohm.m                      : RT:SFINX:rC:NONE:v1 
SAND     .unitless                   : SAND:SFINX:rC:NONE:v1 
SP       .mV                         : SP:SFINX:rC:NONE:v1 
SW       .v/v_decimal                : SW:SFINX:rC:NONE:v1 
VSH      .v/v_decimal                : VSH:SFINX:rC:NONE:v1 
~A     DEPTH         CALI       DT-CKS           DT           GR         NPHI         PHIF          RFT         RHOB           RT         SAND           SP           SW          VSH
# ...
   1823.9232      12.9530     146.1308     168.0000      75.6880       0.4487    -999.2500    -999.2500       2.0352    -999.2500    -999.2500     141.6200    -999.2500    -999.2500
   1824.0756      13.2810     146.1104     168.1200      75.6880       0.4727    -999.2500    -999.2500       2.0410    -999.2500    -999.2500     140.2500    -999.2500    -999.2500
   1824.2280      12.9380     145.1442     167.7500      72.3130       0.5078    -999.2500    -999.2500       2.0430    -999.2500    -999.2500     140.1200    -999.2500    -999.2500
   1824.3804      13.0470     143.3833     165.5000      74.8130       0.5361    -999.2500    -999.2500       2.0449    -999.2500    -999.2500     140.2500    -999.2500    -999.2500
   1824.5328      12.9300     142.4704     164.1200      74.4380       0.4863    -999.2500    -999.2500       2.0371    -999.2500    -999.2500     140.2500    -999.2500    -999.2500
   1824.6852      12.9530     142.7466     164.3700      72.8130       0.5420    -999.2500    -999.2500       2.0352    -999.2500    -999.2500     140.1200    -999.2500    -999.2500
   1824.8376      12.9140     142.3759     165.3700      72.1250       0.5225    -999.2500    -999.2500       2.0410    -999.2500    -999.2500     139.8700    -999.2500    -999.2500
   1824.9900      12.8670     139.3672     162.5000      72.0630       0.5727    -999.2500    -999.2500       2.0410    -999.2500    -999.2500     137.0000    -999.2500    -999.2500
   1825.1425      12.6410     131.2911     158.3700      72.4380       0.4990    -999.2500    -999.2500       2.0430    -999.2500    -999.2500     140.2500    -999.2500    -999.2500
   1825.2948      12.6560     116.6127     139.1200      67.3130       0.5542    -999.2500    -999.2500       2.0391    -999.2500    -999.2500     139.7500    -999.2500    -999.2500
   1825.4471      12.4770     109.0057     130.5000      66.6250       0.5347    -999.2500    -999.2500       2.0371    -999.2500    -999.2500     139.8700    -999.2500    -999.2500
   1825.5996      12.4770     108.5714     129.0000      63.6560       0.4898    -999.2500    -999.2500       2.0391    -999.2500    -999.2500     140.3700    -999.2500    -999.2500
   1825.7520      12.3590     115.9507     132.7500      66.1250       0.4902    -999.2500    -999.2500       2.0332    -999.2500    -999.2500     140.2500    -999.2500    -999.2500
   1825.9044      12.5000     130.3603     152.7500      65.7500       0.4800    -999.2500    -999.2500       2.0430    -999.2500    -999.2500     140.5000    -999.2500    -999.2500
   1826.0568      12.5940     138.4550     160.5000      69.6880       0.5547    -999.2500    -999.2500       2.0449    -999.2500    -999.2500     139.7500    -999.2500    -999.2500
   1826.2092      12.7030     141.0714     163.1200      72.2500       0.4941    -999.2500    -999.2500       2.0527    -999.2500    -999.2500     140.0000    -999.2500    -999.2500
   1826.3616      12.7420     141.2902     163.7500      69.3750       0.4888    -999.2500    -999.2500       2.0508    -999.2500    -999.2500     139.8700    -999.2500    -999.2500
   1826.5140      12.8910     140.2042     162.5000      72.1250       0.4585    -999.2500    -999.2500       2.0586    -999.2500    -999.2500     140.8700    -999.2500    -999.2500
   1826.6664      13.1640     140.3716     161.0000      73.4380       0.4766    -999.2500    -999.2500       2.0508    -999.2500    -999.2500     141.3700    -999.2500    -999.2500
   1826.8188      13.7030     142.5914     164.7500      79.6250       0.5464    -999.2500    -999.2500       2.0488    -999.2500    -999.2500     141.5000    -999.2500    -999.2500
   1826.9712      12.8670     143.2711     165.5000      81.3750       0.5405    -999.2500    -999.2500       2.0371    -999.2500    -999.2500     142.0000    -999.2500    -999.2500
   1827.1237      12.3280     143.4080     165.1200      79.1880       0.5371    -999.2500    -999.2500       2.0371    -999.2500    -999.2500     141.6200    -999.2500    -999.2500
   1827.2760      12.3750     143.6052     166.0000      80.2500       0.5049    -999.2500    -999.2500       2.0332    -999.2500    -999.2500     140.5000    -999.2500    -999.2500
   1827.4283      12.4220     143.0788     165.1200      81.5000       0.5049    -999.2500    -999.2500       2.0371    -999.2500    -999.2500     140.2500    -999.2500    -999.2500
   1827.5808      12.7270     142.7542     164.7500      80.8130       0.5195    -999.2500    -999.2500       2.0449    -999.2500    -999.2500     140.7500    -999.2500    -999.2500
   1827.7332      12.9610     142.6332     164.7500      77.3130       0.5024    -999.2500    -999.2500       2.0488    -999.2500    -999.2500     140.5000    -999.2500    -999.2500
   1827.8856      12.8830     142.4841     164.5000      71.8130       0.5503    -999.2500    -999.2500       2.0488    -999.2500    -999.2500     140.6200    -999.2500    -999.2500
   1828.0380      12.8360     142.4079     164.5000      75.9380       0.5352    -999.2500    -999.2500       2.0449    -999.2500    -999.2500     140.6200    -999.2500    -999.2500
   1828.1904      12.9840     142.3692     164.3700      79.5630       0.5386    -999.2500    -999.2500       2.0449    -999.2500    -999.2500     137.8700    -999.2500    -999.2500
   1828.3428      13.0230     142.3796     164.5000      83.3750       0.5054    -999.2500    -999.2500       2.0488    -999.2500    -999.2500     140.5000    -999.2500    -999.2500
   1828.4952      12.9610     142.5122     164.3700      77.1250       0.5200    -999.2500    -999.2500       2.0469    -999.2500    -999.2500     139.7500    -999.2500    -999.2500
   1828.6476      13.0940     142.5771     165.0000      72.5000       0.5151    -999.2500    -999.2500       2.0430    -999.2500    -999.2500     140.1200    -999.2500    -999.2500
   1828.8000      13.3830     142.3019     164.1200      70.5630       0.5391    -999.2500    -999.2500       2.0430    -999.2500    -999.2500     139.8700    -999.2500    -999.2500
   1828.9524      13.0080     141.7956     164.7500      71.6880       0.5073    -999.2500    -999.2500       2.0566    -999.2500    -999.2500     140.6200    -999.2500    -999.2500
   1829.1049      12.7970     140.2280     178.0000      72.3130       0.5386    -999.2500    -999.2500       2.0586    -999.2500    -999.2500     140.2500    -999.2500    -999.2500
   1829.2572      12.8200     139.8924     178.0000      74.1880       0.5039    -999.2500    -999.2500       2.0605    -999.2500    -999.2500     140.0000    -999.2500    -999.2500
   1829.4095      12.7030     139.8924     178.3700      70.1250       0.5542    -999.2500    -999.2500       2.0566    -999.2500    -999.2500     140.6200    -999.2500    -999.2500
   1829.5620      12.8130     139.8863     179.0000      70.8750       0.5185    -999.2500    -999.2500       2.0801    -999.2500    -999.2500     140.1200    -999.2500    -999.2500
   1829.7144      12.7970     139.8781     179.3700      66.6880       0.5093    -999.2500    -999.2500       2.0605    -999.2500    -999.2500     140.2500    -999.2500    -999.2500
   1829.8668      12.6880     139.8768     178.7500      70.8130       0.5244    -999.2500    -999.2500       2.0488    -999.2500    -999.2500     140.2500    -999.2500    -999.2500
   1830.0192      12.5470     139.8641     178.3700      72.8130       0.5156    -999.2500    -999.2500       2.0449    -999.2500    -999.2500     141.6200    -999.2500    -999.2500
   1830.1716      12.5700     139.8610     178.5000      79.1250       0.5972    -999.2500    -999.2500       2.0605    -999.2500    -999.2500     142.2500    -999.2500    -999.2500
   1830.3240      12.5470     139.8546     179.3700      74.4380       0.5366    -999.2500    -999.2500       2.0527    -999.2500    -999.2500     141.8700    -999.2500    -999.2500
   1830.4764      12.5230     139.8534     179.7500      75.1250       0.5727    -999.2500    -999.2500       2.0449    -999.2500    -999.2500     141.1200    -999.2500    -999.2500
