#------------------------------------------------------------------------------
#
#   Created by  : [OpenWorks] Log Export Utility (LEXP)
#   Created on  : 2002-04-08 13:44:35
#   Project     : AREA_58_60_21DEC
#   User        : G15173
#   Interpreter : RONHO
#
#------------------------------------------------------------------------------
~VERSION INFORMATION
VERS. 2.0 : CWLS Log ASCII Standard - version 2.0
WRAP.  NO : One line per depth step
~WELL INFORMATION
#MNEMONIC   .UNIT                                           VALUE :DESCRIPTION
#------------------------------------------------------------------------------
STRT        .M                                           575.3100 :START DEPTH
STOP        .M                                          3739.8960 :STOP DEPTH
STEP        .M                                             0.1524 :STEP
NULL        .                                           -999.2500 :NULL VALUE
COMP        .                                             UNKNOWN :COMPANY
WELL        .                                           15/9-A-16 :WELL
FLD         .                                            SLEIPNER :FIELD
LOC         .                                             UNKNOWN :LOCATION
CNTY        .                                             UNKNOWN :COUNTY
STAT        .                                             UNKNOWN :STATE
CTRY        .                                              Norway :COUNTRY
SRVC        .                                             UNKNOWN :SERVICE COMPANY
DATE        .                                             UNKNOWN :LOG DATE
UWI         .                                        NO 15/9-A-16 :UNIQUE WELL ID
XCOORD      .                                       436137.417107 :SURFACE X
YCOORD      .                                      6470282.857379 :SURFACE Y
LAT         .                                           58.367417 :LATITUDE
LON         .                                            1.908404 :LONGITUDE
ELEV        .M                                            78.0000 :SURFACE ELEV
ELEV_TYPE   .                                                  KB :ELEV TYPE
~CURVE INFORMATION
#MNEMONIC.UNIT        API CODE       : CURVE DESCRIPTION
#------------------------------------------------------------------------------
DEPTH    .M                          : Measured Depth
TVD      .M                          : True Vertical Depth (TVD)
GR       .API                        : GR:SFINX:rC:NONE:v1 
NPHI     .v/v_decimal                : NPHI:SFINX:rC:NONE:v1 
PHIF     .v/v_decimal                : PHIF:SFINX:rC:NONE:v1 
RHOB     .g/cm3                      : RHOB:SFINX:rC:NONE:v1 
RT       .ohm.m                      : RT:SFINX:rC:NONE:v1 
~A     DEPTH         TVD           GR         NPHI         PHIF         RHOB           RT
# ...
   2894.6855   1069.6925      39.1080       0.3043       0.3679       2.0430       0.8590
   2894.8379   1069.7089      38.5780       0.2994       0.3636       2.0500       0.8760
   2894.9905   1069.7253      37.7780       0.3153       0.3612       2.0540       0.8870
   2895.1428   1069.7417      38.0660       0.3224       0.3612       2.0540       0.8830
   2895.2952   1069.7582      38.3180       0.3243       0.3624       2.0520       0.8620
   2895.4475   1069.7745      38.4630       0.3244       0.3630       2.0510       0.8620
   2895.6001   1069.7909      38.3140       0.3210       0.3636       2.0500       0.8710
   2895.7524   1069.8074      38.3650       0.3083       0.3612       2.0540       0.8800
   2895.9048   1069.8237      38.0230       0.3067       0.3588       2.0580       0.8800
   2896.0571   1069.8401      38.3020       0.3047       0.3576       2.0600       0.8920
   2896.2097   1069.8566      38.3620       0.3080       0.3570       2.0610       0.8990
   2896.3621   1069.8729      38.9090       0.3178       0.3570       2.0610       0.8860
   2896.5144   1069.8893      39.2220       0.3224       0.3570       2.0610       0.8870
   2896.6667   1069.9058      39.3240       0.3162       0.3564       2.0620       0.8900
   2896.8191   1069.9221      39.0460       0.3156       0.3564       2.0620       0.8880
   2896.9717   1069.9386      39.4130       0.3183       0.3545       2.0650       0.8830
   2897.1240   1069.9552      39.2530       0.3255       0.3533       2.0670       0.8830
   2897.2764   1069.9717      38.3510       0.3310       0.3539       2.0660       0.8640
   2897.4287   1069.9883      38.0260       0.3519       0.3564       2.0620       0.8590
   2897.5813   1070.0048      38.0800       0.3654       0.3612       2.0540       0.8660
   2897.7336   1070.0214      37.8890       0.3642       0.3618       2.0530       0.8660
   2897.8860   1070.0378      37.1360       0.3483       0.3642       2.0490       0.8620
   2898.0383   1070.0543      37.1460       0.3461       0.3648       2.0480       0.8610
   2898.1909   1070.0709      37.3060       0.3259       0.3655       2.0470       0.8550
   2898.3433   1070.0875      37.2020       0.3259       0.3673       2.0440       0.8650
   2898.4956   1070.1040      36.4700       0.3154       0.3685       2.0420       0.8670
   2898.6479   1070.1205      36.3290       0.3104       0.3685       2.0420       0.8690
   2898.8003   1070.1371      36.7340       0.3093       0.3673       2.0440       0.8730
   2898.9529   1070.1536      36.7240       0.3051       0.3648       2.0480       0.8710
   2899.1052   1070.1702      36.7390       0.3050       0.3648       2.0480       0.8670
   2899.2576   1070.1866      37.3510       0.3149       0.3636       2.0500       0.8670
   2899.4099   1070.2032      37.5690       0.3161       0.3630       2.0510       0.8620
   2899.5625   1070.2197      36.7670       0.3175       0.3642       2.0490       0.8620
   2899.7148   1070.2363      36.5100       0.3164       0.3642       2.0490       0.8630
   2899.8672   1070.2528      36.3050       0.3284       0.3648       2.0480       0.8610
   2900.0195   1070.2693      35.6930       0.3296       0.3648       2.0480       0.8550
   2900.1721   1070.2859      34.1210       0.3269       0.3636       2.0500       0.8490
   2900.3245   1070.3024      34.1450       0.3269       0.3636       2.0500       0.8470
   2900.4768   1070.3190      34.8940       0.3232       0.3642       2.0490       0.8470
   2900.6292   1070.3354      34.9610       0.3232       0.3655       2.0470       0.8490
   2900.7815   1070.3521      35.1290       0.3378       0.3673       2.0440       0.8450
   2900.9341   1070.3685      35.5020       0.3428       0.3679       2.0430       0.8440
   2901.0864   1070.3851      36.1020       0.3345       0.3691       2.0410       0.8430
   2901.2388   1070.4016      35.8980       0.3330       0.3691       2.0410       0.8410
   2901.3911   1070.4182      35.0370       0.3520       0.3685       2.0420       0.8390
   2901.5437   1070.4347      34.8360       0.3457       0.3679       2.0430       0.8390
   2901.6960   1070.4513      35.3400       0.3413       0.3691       2.0410       0.8380
   2901.8484   1070.4678      35.4930       0.3354       0.3703       2.0390       0.8370
   2902.0007   1070.4844      35.3960       0.3296       0.3721       2.0360       0.8410
   2902.1531   1070.5011      35.5120       0.3366       0.3733       2.0340       0.8420
   2902.3057   1070.5178      35.9990       0.3369       0.3733       2.0340       0.8410
   2902.4580   1070.5344      35.6260       0.3026       0.3733       2.0340       0.8370
   2902.6104   1070.5510      35.4380       0.3046       0.3727       2.0350       0.8360
   2902.7627   1070.5677      35.7960       0.3048       0.3727       2.0350       0.8370
   2902.9153   1070.5844      35.3560       0.3241       0.3745       2.0320       0.8330
   2903.0676   1070.6011      34.6300       0.3359       0.3794       2.0240       0.8340
   2903.2200   1070.6177      34.3780       0.3357       0.3830       2.0180       0.8360
   2903.3723   1070.6344      34.4150       0.3289       0.3861       2.0130       0.8390
   2903.5249   1070.6510      34.3680       0.3198       0.3867       2.0120       0.8390
   2903.6772   1070.6677      34.8410       0.3239       0.3873       2.0110       0.8360
   2903.8296   1070.6843      35.1590       0.3286       0.3873       2.0110       0.8360
   2903.9819   1070.7010      35.4580       0.3308       0.3861       2.0130       0.8410
   2904.1343   1070.7177      35.3330       0.3229       0.3855       2.0140       0.8410
   2904.2869   1070.7344      35.5030       0.3229       0.3861       2.0130       0.8340
   2904.4392   1070.7510      35.6100       0.3296       0.3861       2.0130       0.8280
   2904.5916   1070.7677      35.1340       0.3466       0.3830       2.0180       0.8230
   2904.7439   1070.7843      35.2240       0.3535       0.3818       2.0200       0.8210
   2904.8965   1070.8010      35.3040       0.3403       0.3818       2.0200       0.8240
   2905.0488   1070.8176      35.6280       0.3388       0.3818       2.0200       0.8280
   2905.2012   1070.8344      35.4150       0.3363       0.3824       2.0190       0.8280
   2905.3535   1070.8510      36.1100       0.3645       0.3830       2.0180       0.8290
   2905.5061   1070.8677      35.8790       0.3761       0.3836       2.0170       0.8310
   2905.6584   1070.8843      35.8310       0.3547       0.3848       2.0150       0.8360
   2905.8108   1070.9010      35.8050       0.3535       0.3861       2.0130       0.8350
   2905.9631   1070.9176      35.3110       0.3451       0.3855       2.0140       0.8310
   2906.1155   1070.9342      34.8520       0.3440       0.3842       2.0160       0.8290
   2906.2681   1070.9509      34.9100       0.3458       0.3794       2.0240       0.8310
   2906.4204   1070.9675      35.4800       0.3476       0.3776       2.0270       0.8350
   2906.5728   1070.9843      35.6830       0.3567       0.3782       2.0260       0.8320
   2906.7251   1071.0009      35.5900       0.3612       0.3800       2.0230       0.8260
   2906.8777   1071.0176      35.1240       0.3573       0.3818       2.0200       0.8200
   2907.0300   1071.0344      35.1280       0.3534       0.3818       2.0200       0.8120
   2907.1824   1071.0511      34.2190       0.3532       0.3806       2.0220       0.8200
   2907.3347   1071.0680      33.8970       0.3606       0.3800       2.0230       0.8230
   2907.4873   1071.0848      34.3240       0.3655       0.3806       2.0220       0.8180
   2907.6396   1071.1016      34.6600       0.3639       0.3812       2.0210       0.8160
   2907.7920   1071.1184      36.1280       0.3508       0.3848       2.0150       0.8120
   2907.9443   1071.1351      36.3400       0.3450       0.3867       2.0120       0.8130
   2908.0967   1071.1520      37.2280       0.3372       0.3855       2.0140       0.8040
