#------------------------------------------------------------------------------
#
#   Created by  : [OpenWorks] Log Export Utility (LEXP)
#   Created on  : 2011-12-19 12:32:06
#   Project     : AREA_58_60_21DEC
#   User        : AKAFU
#   Interpreter : AKAFU
#
#------------------------------------------------------------------------------
~VERSION INFORMATION
VERS. 2.0 : CWLS Log ASCII Standard - version 2.0
WRAP.  NO : One line per depth step
~WELL INFORMATION
#MNEMONIC   .UNIT                                           VALUE :DESCRIPTION
#------------------------------------------------------------------------------
STRT        .M                                             0.0000 :START DEPTH
STOP        .M                                          1999.9452 :STOP DEPTH
STEP        .M                                             0.1524 :STEP
NULL        .                                           -999.2500 :NULL VALUE
COMP        .                                             UNKNOWN :COMPANY
WELL        .                                          NO 15/9-13 :WELL
FLD         .                                            SLEIPNER :FIELD
LOC         .                                             UNKNOWN :LOCATION
CNTY        .                                             UNKNOWN :COUNTY
STAT        .                                             UNKNOWN :STATE
CTRY        .                                              Norway :COUNTRY
SRVC        .                                             UNKNOWN :SERVICE COMPANY
DATE        .                                             UNKNOWN :LOG DATE
UWI         .                                          NO 15/9-13 :UNIQUE WELL ID
XCOORD      .                                       437653.695349 :SURFACE X
YCOORD      .                                      6470978.020701 :SURFACE Y
LAT         .                                           58.373878 :LATITUDE
LON         .                                            1.934128 :LONGITUDE
ELEV        .M                                            25.0000 :SURFACE ELEV
ELEV_TYPE   .                                                  KB :ELEV TYPE
~CURVE INFORMATION
#MNEMONIC.UNIT        API CODE       : CURVE DESCRIPTION
#------------------------------------------------------------------------------
DEPTH    .M                          : Measured Depth
CALI     .inches                     : CALI:SFINX:rC:NONE:v1 
DT-CKS   .us/ft                      : DT-CKS:SFINX:rC:NONE:v1 
DT       .us/ft                      : DT:SFINX:rC:NONE:v1 
GR       .API                        : GR:SFINX:rC:NONE:v1 
NPHI     .v/v_decimal                : NPHI:SFINX:rC:NONE:v1 
PHIF     .v/v_decimal                : PHIF:SFINX:rC:NONE:v1 
RFT      .bar         UNKNOWN        : RFT:SFINX:rC:NONE:v1 
RHOB     .g/cm3                      : RHOB:SFINX:rC:NONE:v1 
RT       .ohm.m                      : RT:SFINX:rC:NONE:v1 
SAND     .unitless                   : SAND:SFINX:rC:NONE:v1 
SP       .mV                         : SP:SFINX:rC:NONE:v1 
SW       .v/v_decimal                : SW:SFINX:rC:NONE:v1 
VSH      .v/v_decimal                : VSH:SFINX:rC:NONE:v1 
~A     DEPTH         CALI       DT-CKS           DT           GR         NPHI         PHIF          RFT         RHOB           RT         SAND           SP           SW          VSH
# ...
   1139.9520      18.9220     162.8060     166.7500      54.6880       0.5771    -999.2500    -999.2500       1.6191    -999.2500    -999.2500     -48.4380    -999.2500    -999.2500
   1140.1044      18.2500     156.9337     159.1200      58.5000       0.6118    -999.2500    -999.2500       1.6875    -999.2500    -999.2500     -49.1880    -999.2500    -999.2500
   1140.2568      20.2340     153.3647     154.7500      64.8130       0.6055    -999.2500    -999.2500       1.7393    -999.2500    -999.2500     -48.8440    -999.2500    -999.2500
   1140.4092      19.2030     153.5052     155.7500      70.0000       0.6899    -999.2500    -999.2500       1.7666    -999.2500    -999.2500     -48.5940    -999.2500    -999.2500
   1140.5616      18.9380     154.1563     156.1200      69.0000       0.7520    -999.2500    -999.2500       1.7383    -999.2500    -999.2500     -48.0940    -999.2500    -999.2500
   1140.7140      18.1880     154.9238     157.3700      68.4380       0.7295    -999.2500    -999.2500       1.7559    -999.2500    -999.2500     -47.3130    -999.2500    -999.2500
   1140.8665      18.5780     153.6954     157.0000      70.1880       0.5894    -999.2500    -999.2500       1.7832    -999.2500    -999.2500     -46.7190    -999.2500    -999.2500
   1141.0188      19.3130     149.9653     152.1200      73.8750       0.4658    -999.2500    -999.2500       1.8027    -999.2500    -999.2500     -45.8440    -999.2500    -999.2500
   1141.1711      18.0310     148.1404     149.1200      76.5000       0.5151    -999.2500    -999.2500       1.8037    -999.2500    -999.2500     -45.4690    -999.2500    -999.2500
   1141.3236      18.0310     150.9891     152.3700      82.3130       0.5649    -999.2500    -999.2500       1.7939    -999.2500    -999.2500     -44.7500    -999.2500    -999.2500
   1141.4760      19.2970     155.6090     157.5000      80.4380       0.5918    -999.2500    -999.2500       1.7861    -999.2500    -999.2500     -43.6250    -999.2500    -999.2500
   1141.6284      18.0470     159.2685     161.7500      79.3130       0.5430    -999.2500    -999.2500       1.7578    -999.2500    -999.2500     -44.9690    -999.2500    -999.2500
   1141.7808      18.0780     159.6674     163.0000      73.3750       0.5483    -999.2500    -999.2500       1.7500    -999.2500    -999.2500     -45.0000    -999.2500    -999.2500
   1141.9332      19.0780     156.7380     159.1200      75.7500       0.5967    -999.2500    -999.2500       1.7529    -999.2500    -999.2500     -45.2500    -999.2500    -999.2500
   1142.0856      18.0470     153.5327     156.3700      77.1880       0.6123    -999.2500    -999.2500       1.7705    -999.2500    -999.2500     -45.5310    -999.2500    -999.2500
   1142.2380      18.0470     149.8552     152.1200      75.9380       0.6001    -999.2500    -999.2500       1.7813    -999.2500    -999.2500     -45.6250    -999.2500    -999.2500
   1142.3904      18.0940     147.5869     149.7500      74.1250       0.6138    -999.2500    -999.2500       1.8027    -999.2500    -999.2500     -46.2190    -999.2500    -999.2500
   1142.5428      18.2190     145.9763     148.5000      75.6880       0.6099    -999.2500    -999.2500       1.8184    -999.2500    -999.2500     -45.7500    -999.2500    -999.2500
   1142.6952      18.3590     144.7400     146.5000      77.2500       0.6396    -999.2500    -999.2500       1.8174    -999.2500    -999.2500     -46.4690    -999.2500    -999.2500
   1142.8477      18.3750     145.7135     147.3700      76.3750       0.5615    -999.2500    -999.2500       1.8018    -999.2500    -999.2500     -46.7190    -999.2500    -999.2500
   1143.0000      18.3750     147.5509     150.1200      70.7500       0.4990    -999.2500    -999.2500       1.7852    -999.2500    -999.2500     -49.4690    -999.2500    -999.2500
   1143.1523      18.3750     148.1550     150.3700      67.6250       0.4741    -999.2500    -999.2500       1.7832    -999.2500    -999.2500     -48.2190    -999.2500    -999.2500
   1143.3048      18.1410     148.3324     150.5000      65.1880       0.4795    -999.2500    -999.2500       1.7881    -999.2500    -999.2500     -48.5630    -999.2500    -999.2500
   1143.4572      19.4060     149.0591     150.7500      58.5940       0.4795    -999.2500    -999.2500       1.7969    -999.2500    -999.2500     -50.6880    -999.2500    -999.2500
   1143.6096      19.4690     151.2564     153.0000      49.2500       0.4346    -999.2500    -999.2500       1.7842    -999.2500    -999.2500     -52.0940    -999.2500    -999.2500
   1143.7620      18.7030     153.7905     156.5000      41.1250       0.4604    -999.2500    -999.2500       1.7256    -999.2500    -999.2500     -53.8750    -999.2500    -999.2500
   1143.9144      18.5780     154.8427     156.5000      35.9380       0.4898    -999.2500    -999.2500       1.7529    -999.2500    -999.2500     -54.7190    -999.2500    -999.2500
   1144.0668      18.2970     155.7727     158.7500      34.6880       0.5190    -999.2500    -999.2500       1.8164    -999.2500    -999.2500     -55.2190    -999.2500    -999.2500
   1144.2192      21.2340     154.9646     156.7500      35.0000       0.4824    -999.2500    -999.2500       1.9365    -999.2500    -999.2500     -56.1250    -999.2500    -999.2500
   1144.3716      22.0160     155.4657     157.3700      35.2500       0.4971    -999.2500    -999.2500       1.9336    -999.2500    -999.2500     -56.3750    -999.2500    -999.2500
   1144.5240      21.0310     156.9029     159.0000      33.6560       0.4863    -999.2500    -999.2500       1.9434    -999.2500    -999.2500     -56.0310    -999.2500    -999.2500
   1144.6764      21.6880     157.8862     160.3700      33.0310       0.5205    -999.2500    -999.2500       1.9463    -999.2500    -999.2500     -55.3750    -999.2500    -999.2500
   1144.8289      22.7660     157.7070     160.0000      31.5310       0.5757    -999.2500    -999.2500       1.9502    -999.2500    -999.2500     -55.0000    -999.2500    -999.2500
   1144.9812      22.5940     157.2159     159.5000      32.0630       0.6211    -999.2500    -999.2500       1.9561    -999.2500    -999.2500     -56.3750    -999.2500    -999.2500
   1145.1335      22.5940     156.8343     158.5000      31.0630       0.6270    -999.2500    -999.2500       1.9688    -999.2500    -999.2500     -56.0310    -999.2500    -999.2500
   1145.2860      23.1880     156.7715     159.7500      32.4690       0.5781    -999.2500    -999.2500       1.9834    -999.2500    -999.2500     -56.6250    -999.2500    -999.2500
   1145.4384      23.2190     156.7651     161.0000      34.3130       0.5723    -999.2500    -999.2500       1.9668    -999.2500    -999.2500     -56.4060    -999.2500    -999.2500
   1145.5908      23.2660     156.7669     164.5000      35.9380       0.5381    -999.2500    -999.2500       1.9473    -999.2500    -999.2500     -56.2810    -999.2500    -999.2500
   1145.7432      23.2660     156.7675     166.1200      33.4380       0.5664    -999.2500    -999.2500       1.9336    -999.2500    -999.2500     -56.6560    -999.2500    -999.2500
   1145.8956      23.2660     156.7642     167.5000      33.1250       0.5146    -999.2500    -999.2500       1.9150    -999.2500    -999.2500     -56.3750    -999.2500    -999.2500
   1146.0480      23.2660     156.7605     170.5000      31.8280       0.5488    -999.2500    -999.2500       1.8125    -999.2500    -999.2500     -57.0940    -999.2500    -999.2500
   1146.2004      23.2660     156.7630     173.5000      33.3440       0.5317    -999.2500    -999.2500       1.6904    -999.2500    -999.2500     -57.1880    -999.2500    -999.2500
   1146.3528      23.2660     156.7605     175.5000      31.7970       0.5498    -999.2500    -999.2500       1.5996    -999.2500    -999.2500     -57.2190    -999.2500    -999.2500
   1146.5052      23.2660     156.7596     176.5000      30.5470       0.5557    -999.2500    -999.2500       1.6064    -999.2500    -999.2500     -58.0630    -999.2500    -999.2500
