#------------------------------------------------------------------------------
#
#   Created by  : [OpenWorks] Log Export Utility (LEXP)
#   Created on  : 2011-12-19 12:32:06
#   Project     : AREA_58_60_21DEC
#   User        : AKAFU
#   Interpreter : AKAFU
#
#------------------------------------------------------------------------------
~VERSION INFORMATION
VERS. 2.0 : CWLS Log ASCII Standard - version 2.0
WRAP.  NO : One line per depth step
~WELL INFORMATION
#MNEMONIC   .UNIT                                           VALUE :DESCRIPTION
#------------------------------------------------------------------------------
STRT        .M                                             0.0000 :START DEPTH
STOP        .M                                          1999.9452 :STOP DEPTH
STEP        .M                                             0.1524 :STEP
NULL        .                                           -999.2500 :NULL VALUE
COMP        .                                             UNKNOWN :COMPANY
WELL        .                                          NO 15/9-13 :WELL
FLD         .                                            SLEIPNER :FIELD
LOC         .                                             UNKNOWN :LOCATION
CNTY        .                                             UNKNOWN :COUNTY
STAT        .                                             UNKNOWN :STATE
CTRY        .                                              Norway :COUNTRY
SRVC        .                                             UNKNOWN :SERVICE COMPANY
DATE        .                                             UNKNOWN :LOG DATE
UWI         .                                          NO 15/9-13 :UNIQUE WELL ID
XCOORD      .                                       437653.695349 :SURFACE X
YCOORD      .                                      6470978.020701 :SURFACE Y
LAT         .                                           58.373878 :LATITUDE
LON         .                                            1.934128 :LONGITUDE
ELEV        .M                                            25.0000 :SURFACE ELEV
ELEV_TYPE   .                                                  KB :ELEV TYPE
~CURVE INFORMATION
#MNEMONIC.UNIT        API CODE       : CURVE DESCRIPTION
#------------------------------------------------------------------------------
DEPTH    .M                          : Measured Depth
CALI     .inches                     : CALI:SFINX:rC:NONE:v1 
DT-CKS   .us/ft                      : DT-CKS:SFINX:rC:NONE:v1 
DT       .us/ft                      : DT:SFINX:rC:NONE:v1 
GR       .API                        : GR:SFINX:rC:NONE:v1 
NPHI     .v/v_decimal                : NPHI:SFINX:rC:NONE:v1 
PHIF     .v/v_decimal                : PHIF:SFINX:rC:NONE:v1 
RFT      .bar         UNKNOWN        : RFT:SFINX:rC:NONE:v1 
RHOB     .g/cm3                      : RHOB:SFINX:rC:NONE:v1 
RT       .ohm.m                      : RT:SFINX:rC:NONE:v1 
SAND     .unitless                   : SAND:SFINX:rC:NONE:v1 
SP       .mV                         : SP:SFINX:rC:NONE:v1 
SW       .v/v_decimal                : SW:SFINX:rC:NONE:v1 
VSH      .v/v_decimal                : VSH:SFINX:rC:NONE:v1 
~A     DEPTH         CALI       DT-CKS           DT           GR         NPHI         PHIF          RFT         RHOB           RT         SAND           SP           SW          VSH
# ...
   1763.5728      12.9140     145.8382     164.0000      79.2500       0.5576    -999.2500    -999.2500       2.0039    -999.2500    -999.2500     137.8700    -999.2500    -999.2500
   1763.7252      12.4920     145.7111     163.7500      80.4380       0.5771    -999.2500    -999.2500       2.0000    -999.2500    -999.2500     138.2500    -999.2500    -999.2500
   1763.8776      12.3750     146.8977     165.1200      83.5630       0.5557    -999.2500    -999.2500       2.0039    -999.2500    -999.2500     137.7500    -999.2500    -999.2500
   1764.0300      13.4610     148.5665     167.1200      88.7500       0.5156    -999.2500    -999.2500       1.9854    -999.2500    -999.2500     138.2500    -999.2500    -999.2500
   1764.1824      13.6800     148.8381     167.1200      88.3750       0.5322    -999.2500    -999.2500       1.9844    -999.2500    -999.2500     137.5000    -999.2500    -999.2500
   1764.3348      13.3830     148.4385     166.7500      84.0000       0.5493    -999.2500    -999.2500       1.9873    -999.2500    -999.2500     137.1200    -999.2500    -999.2500
   1764.4872      12.1720     147.2370     165.5000      81.3750       0.5835    -999.2500    -999.2500       1.9873    -999.2500    -999.2500     135.1200    -999.2500    -999.2500
   1764.6396      12.1880     145.7651     163.7500      80.6250       0.5102    -999.2500    -999.2500       1.9824    -999.2500    -999.2500     135.5000    -999.2500    -999.2500
   1764.7920      12.0550     145.7123     164.0000      83.9380       0.5469    -999.2500    -999.2500       1.9893    -999.2500    -999.2500     137.2500    -999.2500    -999.2500
   1764.9445      12.0080     146.0065     164.3700      86.0630       0.5068    -999.2500    -999.2500       1.9795    -999.2500    -999.2500     137.1200    -999.2500    -999.2500
   1765.0968      11.9920     146.2671     164.5000      85.3750       0.5806    -999.2500    -999.2500       1.9717    -999.2500    -999.2500     138.1200    -999.2500    -999.2500
   1765.2491      11.8980     147.0766     165.5000      89.0630       0.5298    -999.2500    -999.2500       1.9668    -999.2500    -999.2500     137.7500    -999.2500    -999.2500
   1765.4016      12.4300     147.6033     166.0000      89.0630       0.5098    -999.2500    -999.2500       1.9678    -999.2500    -999.2500     137.7500    -999.2500    -999.2500
   1765.5540      12.6170     147.8984     166.3700      91.8750       0.4683    -999.2500    -999.2500       1.9746    -999.2500    -999.2500     138.2500    -999.2500    -999.2500
   1765.7064      12.4770     147.4101     165.7500      87.5000       0.4546    -999.2500    -999.2500       1.9756    -999.2500    -999.2500     137.5000    -999.2500    -999.2500
   1765.8588      12.2110     146.7163     165.0000      88.0000       0.4844    -999.2500    -999.2500       1.9883    -999.2500    -999.2500     138.1200    -999.2500    -999.2500
   1766.0112      11.9140     146.4777     164.7500      81.7500       0.4907    -999.2500    -999.2500       2.0000    -999.2500    -999.2500     138.6200    -999.2500    -999.2500
   1766.1636      12.0470     146.9459     165.3700      77.5630       0.5137    -999.2500    -999.2500       2.0059    -999.2500    -999.2500     139.8700    -999.2500    -999.2500
   1766.3160      12.0310     147.8310     166.3700      74.0630       0.5044    -999.2500    -999.2500       2.0195    -999.2500    -999.2500     140.8700    -999.2500    -999.2500
   1766.4684      12.0230     148.3035     166.7500      76.1250       0.5044    -999.2500    -999.2500       2.0078    -999.2500    -999.2500     138.6200    -999.2500    -999.2500
   1766.6208      12.2110     148.6168     167.1200      83.3750       0.4775    -999.2500    -999.2500       1.9922    -999.2500    -999.2500     137.8700    -999.2500    -999.2500
   1766.7732      12.2810     148.4101     167.0000      84.6880       0.4815    -999.2500    -999.2500       1.9785    -999.2500    -999.2500     138.0000    -999.2500    -999.2500
   1766.9257      12.4450     147.4613     165.7500      83.4380       0.5161    -999.2500    -999.2500       1.9795    -999.2500    -999.2500     137.6200    -999.2500    -999.2500
   1767.0780      12.2660     147.0526     165.5000      77.1880       0.5293    -999.2500    -999.2500       1.9922    -999.2500    -999.2500     137.3700    -999.2500    -999.2500
   1767.2303      12.0550     146.9270     165.3700      73.3130       0.5352    -999.2500    -999.2500       2.0000    -999.2500    -999.2500     137.0000    -999.2500    -999.2500
   1767.3828      12.4450     146.9830     165.5000      75.0000       0.4980    -999.2500    -999.2500       2.0137    -999.2500    -999.2500     137.3700    -999.2500    -999.2500
   1767.5352      12.0310     147.0184     165.5000      75.5630       0.5088    -999.2500    -999.2500       2.0254    -999.2500    -999.2500     136.1200    -999.2500    -999.2500
   1767.6876      12.0700     147.1040     165.7500      78.9380       0.5322    -999.2500    -999.2500       2.0215    -999.2500    -999.2500     134.5000    -999.2500    -999.2500
   1767.8400      12.1020     146.4500     165.0000      77.2500       0.5317    -999.2500    -999.2500       2.0156    -999.2500    -999.2500     137.2500    -999.2500    -999.2500
   1767.9924      12.4770     145.6389     164.0000      78.9380       0.5215    -999.2500    -999.2500       2.0039    -999.2500    -999.2500     138.0000    -999.2500    -999.2500
   1768.1448      12.3830     145.3719     164.0000      82.0000       0.5278    -999.2500    -999.2500       2.0039    -999.2500    -999.2500     138.2500    -999.2500    -999.2500
   1768.2972      12.3050     144.7440     163.1200      81.6880       0.5127    -999.2500    -999.2500       2.0000    -999.2500    -999.2500     138.5000    -999.2500    -999.2500
   1768.4496      11.9840     144.8714     163.5000      77.5000       0.4854    -999.2500    -999.2500       1.9873    -999.2500    -999.2500     137.5000    -999.2500    -999.2500
   1768.6021      12.3360     145.1164     163.5000      73.7500       0.4263    -999.2500    -999.2500       1.9629    -999.2500    -999.2500     136.6200    -999.2500    -999.2500
   1768.7544      11.6560     146.3210     165.1200      77.3130       0.4600    -999.2500    -999.2500       1.9551    -999.2500    -999.2500     137.1200    -999.2500    -999.2500
   1768.9069      12.2190     146.8587     165.5000      84.8130       0.5479    -999.2500    -999.2500       1.9512    -999.2500    -999.2500     136.7500    -999.2500    -999.2500
   1769.0592      12.4060     147.0538     165.7500      82.9380       0.5806    -999.2500    -999.2500       1.9619    -999.2500    -999.2500     137.3700    -999.2500    -999.2500
   1769.2115      11.5470     146.7880     165.5000      81.8750       0.5400    -999.2500    -999.2500       1.9521    -999.2500    -999.2500     138.0000    -999.2500    -999.2500
   1769.3640      11.6560     146.0031     164.5000      80.3750       0.5278    -999.2500    -999.2500       1.9541    -999.2500    -999.2500     139.2500    -999.2500    -999.2500
   1769.5164      11.6640     145.7440     164.3700      82.7500       0.5278    -999.2500    -999.2500       1.9570    -999.2500    -999.2500     141.0000    -999.2500    -999.2500
   1769.6688      11.7110     145.9016     164.5000      79.0630       0.5610    -999.2500    -999.2500       1.9756    -999.2500    -999.2500     139.0000    -999.2500    -999.2500
   1769.8212      11.7970     146.3643     165.1200      78.9380       0.4971    -999.2500    -999.2500       1.9932    -999.2500    -999.2500     138.2500    -999.2500    -999.2500
   1769.9736      11.9450     146.5246     165.3700      80.1250       0.5029    -999.2500    -999.2500       2.0039    -999.2500    -999.2500     137.8700    -999.2500    -999.2500
   1770.1260      11.9380     146.0251     164.5000      81.9380       0.5044    -999.2500    -999.2500       2.0059    -999.2500    -999.2500     138.6200    -999.2500    -999.2500
