#------------------------------------------------------------------------------
#
#   Created by  : [OpenWorks] Log Export Utility (LEXP)
#   Created on  : 2002-04-08 13:44:35
#   Project     : AREA_58_60_21DEC
#   User        : G15173
#   Interpreter : RONHO
#
#------------------------------------------------------------------------------
~VERSION INFORMATION
VERS. 2.0 : CWLS Log ASCII Standard - version 2.0
WRAP.  NO : One line per depth step
~WELL INFORMATION
#MNEMONIC   .UNIT                                           VALUE :DESCRIPTION
#------------------------------------------------------------------------------
STRT        .M                                           575.3100 :START DEPTH
STOP        .M                                          3739.8960 :STOP DEPTH
STEP        .M                                             0.1524 :STEP
NULL        .                                           -999.2500 :NULL VALUE
COMP        .                                             UNKNOWN :COMPANY
WELL        .                                           15/9-A-16 :WELL
FLD         .                                            SLEIPNER :FIELD
LOC         .                                             UNKNOWN :LOCATION
CNTY        .                                             UNKNOWN :COUNTY
STAT        .                                             UNKNOWN :STATE
CTRY        .                                              Norway :COUNTRY
SRVC        .                                             UNKNOWN :SERVICE COMPANY
DATE        .                                             UNKNOWN :LOG DATE
UWI         .                                        NO 15/9-A-16 :UNIQUE WELL ID
XCOORD      .                                       436137.417107 :SURFACE X
YCOORD      .                                      6470282.857379 :SURFACE Y
LAT         .                                           58.367417 :LATITUDE
LON         .                                            1.908404 :LONGITUDE
ELEV        .M                                            78.0000 :SURFACE ELEV
ELEV_TYPE   .                                                  KB :ELEV TYPE
~CURVE INFORMATION
#MNEMONIC.UNIT        API CODE       : CURVE DESCRIPTION
#------------------------------------------------------------------------------
DEPTH    .M                          : Measured Depth
TVD      .M                          : True Vertical Depth (TVD)
GR       .API                        : GR:SFINX:rC:NONE:v1 
NPHI     .v/v_decimal                : NPHI:SFINX:rC:NONE:v1 
PHIF     .v/v_decimal                : PHIF:SFINX:rC:NONE:v1 
RHOB     .g/cm3                      : RHOB:SFINX:rC:NONE:v1 
RT       .ohm.m                      : RT:SFINX:rC:NONE:v1 
~A     DEPTH         TVD           GR         NPHI         PHIF         RHOB           RT
# ...
   2691.2317   1039.9062      40.7340       0.3670       0.3873       2.0110       0.9490
   2691.3840   1039.9347      41.9450       0.3921       0.3964       1.9960       0.9150
   2691.5364   1039.9631      42.2410       0.3875       0.3964       1.9960       0.9160
   2691.6887   1039.9916      42.1410       0.3712       0.3891       2.0080       0.9240
   2691.8413   1040.0200      41.6430       0.3512       0.3830       2.0180       0.9330
   2691.9937   1040.0485      41.5650       0.3349       0.3733       2.0340       0.9410
   2692.1460   1040.0769      41.4220       0.3377       0.3679       2.0430       0.9410
   2692.2983   1040.1055      41.0660       0.3477       0.3624       2.0520       0.9570
   2692.4507   1040.1339      40.1390       0.3654       0.3691       2.0410       0.9450
   2692.6033   1040.1624      38.9740       0.3659       0.3691       2.0410       0.9350
   2692.7556   1040.1908      36.0060       0.3706       0.3861       2.0130       0.9150
   2692.9080   1040.2192      34.9280       0.3705       0.3861       2.0130       0.9220
   2693.0603   1040.2477      32.3920       0.3098       0.3818       2.0200       0.9180
   2693.2129   1040.2762      31.0810       0.3088       0.3788       2.0250       0.9070
   2693.3652   1040.3047      29.4540       0.3013       0.3752       2.0310       0.8960
   2693.5176   1040.3331      29.0560       0.3314       0.3752       2.0310       0.8960
   2693.6699   1040.3616      29.6210       0.3533       0.3800       2.0230       0.8650
   2693.8225   1040.3900      29.5050       0.3536       0.3812       2.0210       0.8610
   2693.9749   1040.4185      28.7970       0.3558       0.3867       2.0120       0.8580
   2694.1272   1040.4470      29.0830       0.3558       0.3891       2.0080       0.8580
   2694.2795   1040.4755      30.1090       0.3423       0.3848       2.0150       0.8410
   2694.4319   1040.5039      29.9010       0.3423       0.3836       2.0170       0.8380
   2694.5845   1040.5323      29.2000       0.2645       0.3758       2.0300       0.8380
   2694.7368   1040.5608      29.0320       0.2694       0.3752       2.0310       0.8380
   2694.8892   1040.5892      29.0820       0.2721       0.3788       2.0250       0.8650
   2695.0415   1040.6177      29.7600       0.2891       0.3812       2.0210       0.8700
   2695.1941   1040.6462      30.1770       0.3111       0.3879       2.0100       0.8670
   2695.3464   1040.6747      30.2440       0.3139       0.3891       2.0080       0.8650
   2695.4988   1040.7031      30.5050       0.3437       0.3812       2.0210       0.8310
   2695.6511   1040.7316      30.8880       0.3540       0.3721       2.0360       0.8570
   2695.8037   1040.7595      30.3380       0.3589       0.3709       2.0380       0.8540
   2695.9561   1040.7874      29.2540       0.3503       0.3733       2.0340       0.8540
   2696.1084   1040.8153      29.2510       0.3328       0.3770       2.0280       0.8610
   2696.2607   1040.8433      29.8910       0.3163       0.3970       1.9950       0.8710
   2696.4131   1040.8711      30.2720       0.3045       0.3988       1.9920       0.8650
   2696.5657   1040.8990      31.1870       0.2930       0.3952       1.9980       0.8700
   2696.7180   1040.9270      31.1940       0.2914       0.3897       2.0070       0.8750
   2696.8704   1040.9548      31.2220       0.2916       0.3818       2.0200       0.8820
   2697.0227   1040.9828      31.3130       0.2914       0.3812       2.0210       0.8780
   2697.1753   1041.0107      31.9150       0.2782       0.3758       2.0300       0.8750
   2697.3276   1041.0386      32.0750       0.2643       0.3691       2.0410       0.8820
   2697.4800   1041.0665      32.8640       0.2623       0.3624       2.0520       0.8800
   2697.6323   1041.0944      33.2220       0.2606       0.3606       2.0550       0.8820
   2697.7849   1041.1223      32.8630       0.2606       0.3533       2.0670       0.8860
   2697.9373   1041.1503      32.7230       0.2665       0.3509       2.0710       0.8850
   2698.0896   1041.1781      31.4720       0.3037       0.3503       2.0720       0.8750
   2698.2419   1041.2061      30.6630       0.3165       0.3564       2.0620       0.8610
   2698.3943   1041.2339      31.2830       0.3324       0.3685       2.0420       0.8480
   2698.5469   1041.2618      31.7650       0.3335       0.3752       2.0310       0.8610
   2698.6992   1041.2898      32.1190       0.3311       0.3776       2.0270       0.8530
   2698.8516   1041.3176      32.4480       0.3282       0.3715       2.0370       0.8680
   2699.0039   1041.3456      32.1400       0.3238       0.3715       2.0370       0.8710
   2699.1565   1041.3735      31.6570       0.3027       0.3618       2.0530       0.8820
   2699.3088   1041.4014      30.6170       0.2968       0.3618       2.0530       0.8750
   2699.4612   1041.4293      30.3110       0.2949       0.3600       2.0560       0.8710
   2699.6135   1041.4572      30.0180       0.2931       0.3667       2.0450       0.8660
   2699.7661   1041.4851      29.1760       0.2870       0.3800       2.0230       0.8680
   2699.9185   1041.5131      29.2110       0.2815       0.3830       2.0180       0.8820
   2700.0708   1041.5409      31.8540       0.2864       0.3867       2.0120       0.8930
   2700.2231   1041.5688      32.8650       0.2901       0.3867       2.0120       0.9040
   2700.3755   1041.5968      33.3550       0.3016       0.3739       2.0330       0.8890
   2700.5281   1041.6246      33.3600       0.2990       0.3661       2.0460       0.8850
   2700.6804   1041.6526      33.8370       0.2877       0.3685       2.0420       0.8820
   2700.8328   1041.6799      33.2150       0.2866       0.3770       2.0280       0.8660
   2700.9851   1041.7073      32.2920       0.2859       0.3964       1.9960       0.8610
   2701.1377   1041.7347      31.7770       0.2865       0.4042       1.9830       0.8580
   2701.2900   1041.7621      31.6430       0.2689       0.4097       1.9740       0.8710
   2701.4424   1041.7894      31.7960       0.2918       0.4085       1.9760       0.8680
   2701.5947   1041.8168      31.8910       0.3265       0.3976       1.9940       0.8680
   2701.7473   1041.8442      31.8770       0.3395       0.3970       1.9950       0.8710
   2701.8997   1041.8716      32.2040       0.3268       0.4030       1.9850       0.8380
   2702.0520   1041.8989      32.1580       0.3047       0.4127       1.9690       0.8280
   2702.2043   1041.9263      32.1380       0.2934       0.4133       1.9680       0.8720
   2702.3567   1041.9536      31.6330       0.2815       0.4109       1.9720       0.8660
   2702.5093   1041.9811      32.0180       0.2809       0.4109       1.9720       0.8590
   2702.6616   1042.0084      32.1780       0.2851       0.4115       1.9710       0.8610
   2702.8140   1042.0358      31.9710       0.2854       0.4115       1.9710       0.8720
   2702.9663   1042.0631      32.0240       0.3094       0.4127       1.9690       0.8960
   2703.1189   1042.0905      32.3710       0.3116       0.4127       1.9690       0.8580
   2703.2712   1042.1179      32.5060       0.3237       0.3503       2.0720       0.8790
   2703.4236   1042.1453      32.6740       0.3346       0.3430       2.0840       0.8630
   2703.5759   1042.1726      32.8430       0.3635       0.3624       2.0520       0.8380
   2703.7285   1042.2000      33.0040       0.3632       0.3648       2.0480       0.8380
   2703.8809   1042.2273      32.6460       0.3570       0.3782       2.0260       0.8630
   2704.0332   1042.2548      32.3550       0.3464       0.3800       2.0230       0.8560
   2704.1855   1042.2821      31.8690       0.3355       0.3715       2.0370       0.8560
   2704.3379   1042.3094      31.9120       0.3342       0.3703       2.0390       0.8540
   2704.4905   1042.3368      31.9580       0.3371       0.3667       2.0450       0.8610
   2704.6428   1042.3641      31.9560       0.3403       0.3661       2.0460       0.8600
