#------------------------------------------------------------------------------
#
#   Created by  : [OpenWorks] Log Export Utility (LEXP)
#   Created on  : 2002-04-08 13:44:35
#   Project     : AREA_58_60_21DEC
#   User        : G15173
#   Interpreter : RONHO
#
#------------------------------------------------------------------------------
~VERSION INFORMATION
VERS. 2.0 : CWLS Log ASCII Standard - version 2.0
WRAP.  NO : One line per depth step
~WELL INFORMATION
#MNEMONIC   .UNIT                                           VALUE :DESCRIPTION
#------------------------------------------------------------------------------
STRT        .M                                           575.3100 :START DEPTH
STOP        .M                                          3739.8960 :STOP DEPTH
STEP        .M                                             0.1524 :STEP
NULL        .                                           -999.2500 :NULL VALUE
COMP        .                                             UNKNOWN :COMPANY
WELL        .                                           15/9-A-16 :WELL
FLD         .                                            SLEIPNER :FIELD
LOC         .                                             UNKNOWN :LOCATION
CNTY        .                                             UNKNOWN :COUNTY
STAT        .                                             UNKNOWN :STATE
CTRY        .                                              Norway :COUNTRY
SRVC        .                                             UNKNOWN :SERVICE COMPANY
DATE        .                                             UNKNOWN :LOG DATE
UWI         .                                        NO 15/9-A-16 :UNIQUE WELL ID
XCOORD      .                                       436137.417107 :SURFACE X
YCOORD      .                                      6470282.857379 :SURFACE Y
LAT         .                                           58.367417 :LATITUDE
LON         .                                            1.908404 :LONGITUDE
ELEV        .M                                            78.0000 :SURFACE ELEV
ELEV_TYPE   .                                                  KB :ELEV TYPE
~CURVE INFORMATION
#MNEMONIC.UNIT        API CODE       : CURVE DESCRIPTION
#------------------------------------------------------------------------------
DEPTH    .M                          : Measured Depth
TVD      .M                          : True Vertical Depth (TVD)
GR       .API                        : GR:SFINX:rC:NONE:v1 
NPHI     .v/v_decimal                : NPHI:SFINX:rC:NONE:v1 
PHIF     .v/v_decimal                : PHIF:SFINX:rC:NONE:v1 
RHOB     .g/cm3                      : RHOB:SFINX:rC:NONE:v1 
RT       .ohm.m                      : RT:SFINX:rC:NONE:v1 
~A     DEPTH         TVD           GR         NPHI         PHIF         RHOB           RT
# ...
   1470.5076    871.2299     102.2980       0.3781    -999.2500       2.2040       2.7190
   1470.6600    871.2526     101.3470       0.3862    -999.2500       2.2020       2.6800
   1470.8124    871.2752     100.8710       0.3903    -999.2500       2.2000       2.6600
   1470.9648    871.2979     100.2000       0.3984    -999.2500       2.1980       2.6200
   1471.1172    871.3206     100.4690       0.4024    -999.2500       2.1970       2.6020
   1471.2697    871.3433     101.0080       0.4053    -999.2500       2.1960       2.6290
   1471.4220    871.3659     101.2780       0.4053    -999.2500       2.1950       2.6420
   1471.5743    871.3885     101.8170       0.4371    -999.2500       2.1940       2.6680
   1471.7268    871.4113     102.0860       0.4529    -999.2500       2.1940       2.6810
   1471.8792    871.4339     102.5050       0.4847    -999.2500       2.1940       2.7080
   1472.0316    871.4566     103.9920       0.5006    -999.2500       2.1940       2.7120
   1472.1840    871.4792     106.9660       0.5018    -999.2500       2.1940       2.7090
   1472.3364    871.5020     108.4530       0.4734    -999.2500       2.1940       2.7080
   1472.4888    871.5246     111.4270       0.4165    -999.2500       2.1910       2.7060
   1472.6412    871.5472     112.9140       0.3880    -999.2500       2.1890       2.7050
   1472.7936    871.5699     113.1310       0.3311    -999.2500       2.1780       2.7030
   1472.9460    871.5926     111.9570       0.3180    -999.2500       2.1680       2.7020
   1473.0984    871.6153     109.6090       0.3170    -999.2500       2.1640       2.6770
   1473.2509    871.6379     107.2610       0.3149    -999.2500       2.1740       2.6520
   1473.4032    871.6606     106.0870       0.3139    -999.2500       2.1790       2.6390
   1473.5555    871.6833     104.5400       0.3118    -999.2500       2.1900       2.6140
   1473.7080    871.7061     105.7380       0.3108    -999.2500       2.1930       2.6010
   1473.8604    871.7288     108.1330       0.3094    -999.2500       2.1840       2.5960
   1474.0128    871.7516     109.3310       0.3247    -999.2500       2.1780       2.5980
   1474.1652    871.7744     111.7270       0.3554    -999.2500       2.1650       2.6020
   1474.3176    871.7972     112.9240       0.3707    -999.2500       2.1640       2.6040
   1474.4700    871.8199     112.8060       0.4014    -999.2500       2.1460       2.6090
   1474.6224    871.8427     111.8490       0.4048    -999.2500       2.1440       2.6110
   1474.7748    871.8655     109.9360       0.3849    -999.2500       2.1470       2.6180
   1474.9272    871.8882     108.9800       0.3650    -999.2500       2.1450       2.6220
   1475.0796    871.9110     107.0670       0.3252    -999.2500       2.1400       2.6290
   1475.2321    871.9338     106.1100       0.3188    -999.2500       2.1400       2.6320
   1475.3844    871.9566     106.2130       0.3188    -999.2500       2.1410       2.6380
   1475.5367    871.9794     106.3950       0.3188    -999.2500       2.1420       2.6240
   1475.6892    872.0021     106.7580       0.3995    -999.2500       2.1440       2.5960
   1475.8416    872.0249     106.9400       0.3972    -999.2500       2.1440       2.5820
   1475.9940    872.0477     107.3040       0.3933    -999.2500       2.1470       2.5550
   1476.1464    872.0704     107.3880       0.3885    -999.2500       2.1490       2.5410
   1476.2988    872.0933     108.2870       0.3788    -999.2500       2.1520       2.5160
   1476.4512    872.1160     109.1860       0.3727    -999.2500       2.1500       2.5390
   1476.6036    872.1388     109.6350       0.3704    -999.2500       2.1440       2.5510
   1476.7560    872.1616     110.5340       0.3660    -999.2500       2.1300       2.5750
   1476.9084    872.1843     110.9140       0.3658    -999.2500       2.1240       2.5860
   1477.0608    872.2071     111.6060       0.3364    -999.2500       2.1240       2.6100
   1477.2133    872.2299     111.9530       0.3317    -999.2500       2.1240       2.6110
   1477.3656    872.2527     112.6450       0.3936    -999.2500       2.1230       2.6160
   1477.5179    872.2755     112.9910       0.4227    -999.2500       2.1230       2.6180
   1477.6704    872.2982     113.6840       0.4227    -999.2500       2.1430       2.6230
   1477.8228    872.3210     113.7620       0.4300    -999.2500       2.1530       2.6250
   1477.9752    872.3438     111.4100       0.4409    -999.2500       2.1680       2.6290
   1478.1276    872.3665     110.2330       0.4141    -999.2500       2.1690       2.6230
   1478.2800    872.3893     107.8810       0.3723    -999.2500       2.1970       2.6100
   1478.4324    872.4121     106.7050       0.3725    -999.2500       2.2100       2.6040
   1478.5848    872.4349     104.8110       0.3727    -999.2500       2.2230       2.5910
   1478.7372    872.4578     106.0490       0.3836    -999.2500       2.2230       2.5850
   1478.8896    872.4808     108.5240       0.3957    -999.2500       2.2210       2.5860
   1479.0420    872.5037     109.7620       0.3981    -999.2500       2.2210       2.5870
   1479.1945    872.5266     108.1520       0.4021    -999.2500       2.2060       2.5890
   1479.3468    872.5496     108.1520       0.4021    -999.2500       2.1990       2.5900
   1479.4991    872.5725     105.5840       0.4085    -999.2500       2.1870       2.5920
   1479.6516    872.5954     102.8870       0.4212    -999.2500       2.1800       2.5930
   1479.8040    872.6183     101.5160       0.4263    -999.2500       2.1790       2.5950
   1479.9564    872.6413     100.2500       0.4229    -999.2500       2.1770       2.5970
   1480.1088    872.6642      99.7580       0.4195    -999.2500       2.1760       2.5980
   1480.2612    872.6872      98.7750       0.4127    -999.2500       2.1800       2.6010
   1480.4136    872.7101      98.7080       0.4122    -999.2500       2.1830       2.6020
   1480.5660    872.7330      98.6040       0.4276    -999.2500       2.1900       2.6300
   1480.7184    872.7560      98.5520       0.4352    -999.2500       2.1930       2.6070
   1480.8708    872.7789      98.4490       0.4465    -999.2500       2.1930       2.5770
   1481.0232    872.8019      98.4370       0.4435    -999.2500       2.1910       2.6150
   1481.1755    872.8248     101.5930       0.4374    -999.2500       2.1870       2.6920
   1481.3280    872.8477     103.1710       0.4344    -999.2500       2.1850       2.7030
   1481.4803    872.8707     106.3280       0.4320    -999.2500       2.1830       2.7280
   1481.6328    872.8936     106.8450       0.4279    -999.2500       2.1830       2.7320
   1481.7852    872.9165     108.5460       0.4195    -999.2500       2.1740       2.7280
   1481.9376    872.9395     109.3960       0.4180    -999.2500       2.1690       2.7260
   1482.0900    872.9624     111.0960       0.3657    -999.2500       2.1610       2.7220
   1482.2424    872.9854     111.4570       0.3547    -999.2500       2.1610       2.7290
   1482.3948    873.0083     108.4350       0.3547    -999.2500       2.1570       2.7420
   1482.5472    873.0312     106.9240       0.3547    -999.2500       2.1530       2.7480
   1482.6996    873.0541     104.2690       0.3547    -999.2500       2.1450       2.7600
   1482.8521    873.0771     107.3050       0.3547    -999.2500       2.1440       2.7470
   1483.0044    873.1000     108.8230       0.3547    -999.2500       2.1440       2.7410
   1483.1567    873.1229     111.8600       0.3660    -999.2500       2.1330       2.7280
   1483.3092    873.1459     111.9990       0.3716    -999.2500       2.1280       2.7220
   1483.4615    873.1688     112.4280       0.3829    -999.2500       2.1210       2.7420
   1483.6140    873.1918     112.6430       0.3837    -999.2500       2.1210       2.7510
   1483.7664    873.2152     112.9490       0.3766    -999.2500       2.1320       2.7710
   1483.9188    873.2387     110.9130       0.3695    -999.2500       2.1380       2.7800
