#------------------------------------------------------------------------------
#
#   Created by  : [OpenWorks] Log Export Utility (LEXP)
#   Created on  : 2011-12-19 12:32:06
#   Project     : AREA_58_60_21DEC
#   User        : AKAFU
#   Interpreter : AKAFU
#
#------------------------------------------------------------------------------
~VERSION INFORMATION
VERS. 2.0 : CWLS Log ASCII Standard - version 2.0
WRAP.  NO : One line per depth step
~WELL INFORMATION
#MNEMONIC   .UNIT                                           VALUE :DESCRIPTION
#------------------------------------------------------------------------------
STRT        .M                                             0.0000 :START DEPTH
STOP        .M                                          1999.9452 :STOP DEPTH
STEP        .M                                             0.1524 :STEP
NULL        .                                           -999.2500 :NULL VALUE
COMP        .                                             UNKNOWN :COMPANY
WELL        .                                          NO 15/9-13 :WELL
FLD         .                                            SLEIPNER :FIELD
LOC         .                                             UNKNOWN :LOCATION
CNTY        .                                             UNKNOWN :COUNTY
STAT        .                                             UNKNOWN :STATE
CTRY        .                                              Norway :COUNTRY
SRVC        .                                             UNKNOWN :SERVICE COMPANY
DATE        .                                             UNKNOWN :LOG DATE
UWI         .                                          NO 15/9-13 :UNIQUE WELL ID
XCOORD      .                                       437653.695349 :SURFACE X
YCOORD      .                                      6470978.020701 :SURFACE Y
LAT         .                                           58.373878 :LATITUDE
LON         .                                            1.934128 :LONGITUDE
ELEV        .M                                            25.0000 :SURFACE ELEV
ELEV_TYPE   .                                                  KB :ELEV TYPE
~CURVE INFORMATION
#MNEMONIC.UNIT        API CODE       : CURVE DESCRIPTION
#------------------------------------------------------------------------------
DEPTH    .M                          : Measured Depth
CALI     .inches                     : CALI:SFINX:rC:NONE:v1 
DT-CKS   .us/ft                      : DT-CKS:SFINX:rC:NONE:v1 
DT       .us/ft                      : DT:SFINX:rC:NONE:v1 
GR       .API                        : GR:SFINX:rC:NONE:v1 
NPHI     .v/v_decimal                : NPHI:SFINX:rC:NONE:v1 
PHIF     .v/v_decimal                : PHIF:SFINX:rC:NONE:v1 
RFT      .bar         UNKNOWN        : RFT:SFINX:rC:NONE:v1 
RHOB     .g/cm3                      : RHOB:SFINX:rC:NONE:v1 
RT       .ohm.m                      : RT:SFINX:rC:NONE:v1 
SAND     .unitless                   : SAND:SFINX:rC:NONE:v1 
SP       .mV                         : SP:SFINX:rC:NONE:v1 
SW       .v/v_decimal                : SW:SFINX:rC:NONE:v1 
VSH      .v/v_decimal                : VSH:SFINX:rC:NONE:v1 
~A     DEPTH         CALI       DT-CKS           DT           GR         NPHI         PHIF          RFT         RHOB           RT         SAND           SP           SW          VSH
# ...
   1253.9471      14.6330     147.4924     129.0000      69.6250       0.5474    -999.2500    -999.2500       1.9580    -999.2500    -999.2500     129.2500    -999.2500    -999.2500
   1254.0996      14.4450     146.9584     128.7500      68.5000       0.4795    -999.2500    -999.2500       1.9893    -999.2500    -999.2500     129.6200    -999.2500    -999.2500
   1254.2520      14.2500     146.2875     128.0000      77.8750       0.4507    -999.2500    -999.2500       1.9902    -999.2500    -999.2500     129.1200    -999.2500    -999.2500
   1254.4044      14.5550     146.0607     127.3700      79.0630       0.4541    -999.2500    -999.2500       1.9756    -999.2500    -999.2500     128.7500    -999.2500    -999.2500
   1254.5568      14.0310     146.0339     127.5600      80.7500       0.5273    -999.2500    -999.2500       1.9619    -999.2500    -999.2500     129.3700    -999.2500    -999.2500
   1254.7092      14.0550     147.4198     127.3700      74.8130       0.5049    -999.2500    -999.2500       1.9502    -999.2500    -999.2500     129.2500    -999.2500    -999.2500
   1254.8616      14.0230     149.0804     130.3700      70.9380       0.5142    -999.2500    -999.2500       1.9570    -999.2500    -999.2500     130.3700    -999.2500    -999.2500
   1255.0140      14.0550     149.8110     131.1200      71.0000       0.4795    -999.2500    -999.2500       1.9590    -999.2500    -999.2500     129.3700    -999.2500    -999.2500
   1255.1664      14.0470     150.3228     131.5000      70.7500       0.5195    -999.2500    -999.2500       1.9570    -999.2500    -999.2500     129.2500    -999.2500    -999.2500
   1255.3188      14.4140     150.5474     132.1200      75.5000       0.4902    -999.2500    -999.2500       1.9443    -999.2500    -999.2500     129.2500    -999.2500    -999.2500
   1255.4712      13.9380     150.2265     132.0000      70.7500       0.5205    -999.2500    -999.2500       1.9268    -999.2500    -999.2500     129.3700    -999.2500    -999.2500
   1255.6237      14.2810     149.9497     131.3700      74.1250       0.4839    -999.2500    -999.2500       1.9111    -999.2500    -999.2500     130.2500    -999.2500    -999.2500
   1255.7760      14.3910     149.3642     131.3700      76.2500       0.5342    -999.2500    -999.2500       1.9023    -999.2500    -999.2500     130.0000    -999.2500    -999.2500
   1255.9283      14.2110     147.7265     130.3700      79.2500       0.5176    -999.2500    -999.2500       1.9121    -999.2500    -999.2500     130.2500    -999.2500    -999.2500
   1256.0808      14.1020     146.3923     128.0000      76.5000       0.5337    -999.2500    -999.2500       1.9307    -999.2500    -999.2500     129.7500    -999.2500    -999.2500
   1256.2332      14.6330     144.6833     127.3700      75.3130       0.4932    -999.2500    -999.2500       1.9473    -999.2500    -999.2500     130.5000    -999.2500    -999.2500
   1256.3856      14.0700     143.3507     125.0000      77.5630       0.4575    -999.2500    -999.2500       1.9424    -999.2500    -999.2500     130.7500    -999.2500    -999.2500
   1256.5380      14.4610     143.0346     124.3700      79.3130       0.4688    -999.2500    -999.2500       1.9375    -999.2500    -999.2500     130.0000    -999.2500    -999.2500
   1256.6904      14.0700     143.1663     124.5600      77.0630       0.4863    -999.2500    -999.2500       1.9219    -999.2500    -999.2500     130.3700    -999.2500    -999.2500
   1256.8428      14.1410     143.9094     124.7500      75.1880       0.4976    -999.2500    -999.2500       1.9209    -999.2500    -999.2500     130.2500    -999.2500    -999.2500
   1256.9952      14.7270     144.7242     126.0000      74.1880       0.5073    -999.2500    -999.2500       1.9102    -999.2500    -999.2500     129.7500    -999.2500    -999.2500
   1257.1476      14.2810     145.4526     126.5600      74.3750       0.5034    -999.2500    -999.2500       1.9199    -999.2500    -999.2500     129.8700    -999.2500    -999.2500
   1257.3000      13.9610     145.8147     127.3700      72.3130       0.5669    -999.2500    -999.2500       1.9219    -999.2500    -999.2500     129.5000    -999.2500    -999.2500
   1257.4524      14.2500     145.9784     127.3700      70.6880       0.5146    -999.2500    -999.2500       1.9268    -999.2500    -999.2500     130.0000    -999.2500    -999.2500
   1257.6049      14.3050     146.0558     127.5600      71.3750       0.5190    -999.2500    -999.2500       1.9170    -999.2500    -999.2500     129.7500    -999.2500    -999.2500
   1257.7572      14.7190     146.2878     127.5600      71.3750       0.4536    -999.2500    -999.2500       1.9063    -999.2500    -999.2500     129.8700    -999.2500    -999.2500
   1257.9095      14.8440     146.5252     128.0000      76.9380       0.4927    -999.2500    -999.2500       1.9160    -999.2500    -999.2500     129.2500    -999.2500    -999.2500
   1258.0620      13.9140     145.9010     128.1200      76.5000       0.4966    -999.2500    -999.2500       1.9346    -999.2500    -999.2500     129.2500    -999.2500    -999.2500
   1258.2144      13.8670     145.2286     126.7500      78.5630       0.5093    -999.2500    -999.2500       1.9531    -999.2500    -999.2500     129.2500    -999.2500    -999.2500
   1258.3668      13.7030     144.5388     126.5600      76.1250       0.4629    -999.2500    -999.2500       1.9463    -999.2500    -999.2500     128.5000    -999.2500    -999.2500
   1258.5192      13.7730     144.0356     125.5600      76.0000       0.4854    -999.2500    -999.2500       1.9365    -999.2500    -999.2500     129.2500    -999.2500    -999.2500
   1258.6716      13.7190     144.0710     125.3700      76.0000       0.4907    -999.2500    -999.2500       1.9277    -999.2500    -999.2500     129.0000    -999.2500    -999.2500
   1258.8240      13.9380     144.9909     125.7500      73.3130       0.4976    -999.2500    -999.2500       1.9219    -999.2500    -999.2500     129.5000    -999.2500    -999.2500
   1258.9764      13.7890     146.7785     127.1900      70.8750       0.4751    -999.2500    -999.2500       1.9072    -999.2500    -999.2500     130.0000    -999.2500    -999.2500
   1259.1288      13.7970     147.4244     129.5000      68.3130       0.5469    -999.2500    -999.2500       1.8857    -999.2500    -999.2500     130.1200    -999.2500    -999.2500
   1259.2812      13.9380     148.1818     128.7500      66.6250       0.5918    -999.2500    -999.2500       1.8652    -999.2500    -999.2500     131.7500    -999.2500    -999.2500
   1259.4336      14.0940     148.5955     130.5000      66.7500       0.6299    -999.2500    -999.2500       1.8594    -999.2500    -999.2500     131.2500    -999.2500    -999.2500
   1259.5861      13.9840     148.3900     130.0000      66.6880       0.6440    -999.2500    -999.2500       1.8691    -999.2500    -999.2500     129.7500    -999.2500    -999.2500
   1259.7384      14.4690     149.2788     129.7500      71.7500       0.6074    -999.2500    -999.2500       1.8848    -999.2500    -999.2500     129.8700    -999.2500    -999.2500
   1259.8907      14.0940     150.0670     131.7500      75.6250       0.5928    -999.2500    -999.2500       1.9033    -999.2500    -999.2500     130.1200    -999.2500    -999.2500
   1260.0432      14.1250     149.5547     131.7500      79.6250       0.5288    -999.2500    -999.2500       1.8994    -999.2500    -999.2500     130.0000    -999.2500    -999.2500
   1260.1956      14.0550     148.3001     130.5000      77.4380       0.5010    -999.2500    -999.2500       1.9014    -999.2500    -999.2500     129.3700    -999.2500    -999.2500
   1260.3480      14.0700     148.5354     129.1200      74.7500       0.4829    -999.2500    -999.2500       1.8867    -999.2500    -999.2500     129.7500    -999.2500    -999.2500
   1260.5004      14.0550     149.0899     130.7500      76.0000       0.5083    -999.2500    -999.2500       1.8906    -999.2500    -999.2500     129.3700    -999.2500    -999.2500
