#------------------------------------------------------------------------------
#
#   Created by  : [OpenWorks] Log Export Utility (LEXP)
#   Created on  : 2011-12-19 12:32:06
#   Project     : AREA_58_60_21DEC
#   User        : AKAFU
#   Interpreter : AKAFU
#
#------------------------------------------------------------------------------
~VERSION INFORMATION
VERS. 2.0 : CWLS Log ASCII Standard - version 2.0
WRAP.  NO : One line per depth step
~WELL INFORMATION
#MNEMONIC   .UNIT                                           VALUE :DESCRIPTION
#------------------------------------------------------------------------------
STRT        .M                                             0.0000 :START DEPTH
STOP        .M                                          1999.9452 :STOP DEPTH
STEP        .M                                             0.1524 :STEP
NULL        .                                           -999.2500 :NULL VALUE
COMP        .                                             UNKNOWN :COMPANY
WELL        .                                          NO 15/9-13 :WELL
FLD         .                                            SLEIPNER :FIELD
LOC         .                                             UNKNOWN :LOCATION
CNTY        .                                             UNKNOWN :COUNTY
STAT        .                                             UNKNOWN :STATE
CTRY        .                                              Norway :COUNTRY
SRVC        .                                             UNKNOWN :SERVICE COMPANY
DATE        .                                             UNKNOWN :LOG DATE
UWI         .                                          NO 15/9-13 :UNIQUE WELL ID
XCOORD      .                                       437653.695349 :SURFACE X
YCOORD      .                                      6470978.020701 :SURFACE Y
LAT         .                                           58.373878 :LATITUDE
LON         .                                            1.934128 :LONGITUDE
ELEV        .M                                            25.0000 :SURFACE ELEV
ELEV_TYPE   .                                                  KB :ELEV TYPE
~CURVE INFORMATION
#MNEMONIC.UNIT        API CODE       : CURVE DESCRIPTION
#------------------------------------------------------------------------------
DEPTH    .M                          : Measured Depth
CALI     .inches                     : CALI:SFINX:rC:NONE:v1 
DT-CKS   .us/ft                      : DT-CKS:SFINX:rC:NONE:v1 
DT       .us/ft                      : DT:SFINX:rC:NONE:v1 
GR       .API                        : GR:SFINX:rC:NONE:v1 
NPHI     .v/v_decimal                : NPHI:SFINX:rC:NONE:v1 
PHIF     .v/v_decimal                : PHIF:SFINX:rC:NONE:v1 
RFT      .bar         UNKNOWN        : RFT:SFINX:rC:NONE:v1 
RHOB     .g/cm3                      : RHOB:SFINX:rC:NONE:v1 
RT       .ohm.m                      : RT:SFINX:rC:NONE:v1 
SAND     .unitless                   : SAND:SFINX:rC:NONE:v1 
SP       .mV                         : SP:SFINX:rC:NONE:v1 
SW       .v/v_decimal                : SW:SFINX:rC:NONE:v1 
VSH      .v/v_decimal                : VSH:SFINX:rC:NONE:v1 
~A     DEPTH         CALI       DT-CKS           DT           GR         NPHI         PHIF          RFT         RHOB           RT         SAND           SP           SW          VSH
# ...
   1193.5968      17.6560     154.7626     156.5000      52.5000       0.3003    -999.2500    -999.2500       1.8672    -999.2500    -999.2500     127.4400    -999.2500    -999.2500
   1193.7491      14.3910     157.1031     159.5000      50.5940       0.3579    -999.2500    -999.2500       1.8525    -999.2500    -999.2500     127.5000    -999.2500    -999.2500
   1193.9016      13.2110     158.6232     161.3700      49.4690       0.4023    -999.2500    -999.2500       1.8506    -999.2500    -999.2500     126.9400    -999.2500    -999.2500
   1194.0540      13.6020     158.0169     161.7500      48.2500       0.4468    -999.2500    -999.2500       1.8506    -999.2500    -999.2500     127.6200    -999.2500    -999.2500
   1194.2064      14.4220     156.1406     159.0000      48.6880       0.4990    -999.2500    -999.2500       1.8594    -999.2500    -999.2500     127.1900    -999.2500    -999.2500
   1194.3588      14.8360     155.5727     157.7500      45.7810       0.4902    -999.2500    -999.2500       1.8584    -999.2500    -999.2500     126.2500    -999.2500    -999.2500
   1194.5112      15.1410     157.2802     158.7500      45.8750       0.4751    -999.2500    -999.2500       1.8604    -999.2500    -999.2500     125.3100    -999.2500    -999.2500
   1194.6636      15.5780     159.8958     162.5000      44.2190       0.4385    -999.2500    -999.2500       1.8584    -999.2500    -999.2500     127.2500    -999.2500    -999.2500
   1194.8160      15.9300     160.8492     163.7500      46.7190       0.4512    -999.2500    -999.2500       1.8584    -999.2500    -999.2500     127.1900    -999.2500    -999.2500
   1194.9684      16.4530     159.9101     163.5000      48.4690       0.4419    -999.2500    -999.2500       1.8525    -999.2500    -999.2500     126.4400    -999.2500    -999.2500
   1195.1208      16.2970     157.3366     161.0000      48.9060       0.4727    -999.2500    -999.2500       1.8574    -999.2500    -999.2500     127.0600    -999.2500    -999.2500
   1195.2732      15.2340     154.1938     157.3700      55.3750       0.5068    -999.2500    -999.2500       1.8691    -999.2500    -999.2500     126.7500    -999.2500    -999.2500
   1195.4257      13.1880     151.7642     155.0000      55.8750       0.5220    -999.2500    -999.2500       1.8809    -999.2500    -999.2500     127.0000    -999.2500    -999.2500
   1195.5780      13.1480     149.6281     153.0000      57.7500       0.4590    -999.2500    -999.2500       1.8887    -999.2500    -999.2500     127.3700    -999.2500    -999.2500
   1195.7303      13.1410     147.8386     150.7500      51.6880       0.4131    -999.2500    -999.2500       1.8877    -999.2500    -999.2500     127.0000    -999.2500    -999.2500
   1195.8828      13.0550     146.8334     149.3700      50.1560       0.4741    -999.2500    -999.2500       1.8828    -999.2500    -999.2500     127.6900    -999.2500    -999.2500
   1196.0352      12.8590     146.9699     149.3700      49.2190       0.5171    -999.2500    -999.2500       1.8789    -999.2500    -999.2500     127.5000    -999.2500    -999.2500
   1196.1876      12.9380     147.1007     150.1200      54.5630       0.5278    -999.2500    -999.2500       1.8887    -999.2500    -999.2500     129.0000    -999.2500    -999.2500
   1196.3400      13.1720     146.0199     149.5000      54.1560       0.4717    -999.2500    -999.2500       1.8936    -999.2500    -999.2500     129.5000    -999.2500    -999.2500
   1196.4924      13.3360     144.2173     147.0000      52.4690       0.4458    -999.2500    -999.2500       1.8926    -999.2500    -999.2500     128.7500    -999.2500    -999.2500
   1196.6448      13.3520     143.4138     146.0000      52.4690       0.4551    -999.2500    -999.2500       1.8809    -999.2500    -999.2500     127.6200    -999.2500    -999.2500
   1196.7972      13.3590     144.2066     146.0000      56.6880       0.4595    -999.2500    -999.2500       1.8750    -999.2500    -999.2500     128.0000    -999.2500    -999.2500
   1196.9496      13.2810     145.8699     148.3700      60.9690       0.5059    -999.2500    -999.2500       1.8711    -999.2500    -999.2500     127.8100    -999.2500    -999.2500
   1197.1021      13.1640     147.4713     149.7500      57.8750       0.4971    -999.2500    -999.2500       1.8740    -999.2500    -999.2500     127.4400    -999.2500    -999.2500
   1197.2544      12.9140     149.1182     151.3700      54.8440       0.5020    -999.2500    -999.2500       1.8721    -999.2500    -999.2500     127.0000    -999.2500    -999.2500
   1197.4069      12.9140     149.7482     153.0000      55.9690       0.4560    -999.2500    -999.2500       1.8750    -999.2500    -999.2500     126.8100    -999.2500    -999.2500
   1197.5592      12.9770     148.6461     152.0000      55.3440       0.4902    -999.2500    -999.2500       1.8740    -999.2500    -999.2500     123.8700    -999.2500    -999.2500
   1197.7115      13.1880     146.5865     149.7500      55.3130       0.5366    -999.2500    -999.2500       1.8799    -999.2500    -999.2500     127.1900    -999.2500    -999.2500
   1197.8640      13.3750     144.2615     147.7500      53.0310       0.5400    -999.2500    -999.2500       1.8750    -999.2500    -999.2500     127.6200    -999.2500    -999.2500
   1198.0164      13.5780     142.3763     145.1200      51.3440       0.5137    -999.2500    -999.2500       1.8477    -999.2500    -999.2500     127.3700    -999.2500    -999.2500
   1198.1688      13.7660     142.2552     144.3700      50.1880       0.4858    -999.2500    -999.2500       1.8242    -999.2500    -999.2500     127.5600    -999.2500    -999.2500
   1198.3212      13.5780     143.8085     145.7500      46.3130       0.4912    -999.2500    -999.2500       1.8154    -999.2500    -999.2500     127.4400    -999.2500    -999.2500
   1198.4736      13.4450     145.7968     148.3700      47.5000       0.4883    -999.2500    -999.2500       1.8359    -999.2500    -999.2500     128.0000    -999.2500    -999.2500
   1198.6260      13.4920     147.2552     149.5000      46.7190       0.4609    -999.2500    -999.2500       1.8545    -999.2500    -999.2500     127.5000    -999.2500    -999.2500
   1198.7784      13.4300     147.7886     151.0000      50.1250       0.4243    -999.2500    -999.2500       1.8545    -999.2500    -999.2500     127.8100    -999.2500    -999.2500
   1198.9308      13.3750     147.1016     150.1200      49.8440       0.4282    -999.2500    -999.2500       1.8477    -999.2500    -999.2500     128.1200    -999.2500    -999.2500
   1199.0833      13.6090     145.9403     149.0000      49.9690       0.4448    -999.2500    -999.2500       1.8516    -999.2500    -999.2500     127.7500    -999.2500    -999.2500
   1199.2356      13.8200     144.5114     147.7500      45.8750       0.5493    -999.2500    -999.2500       1.8643    -999.2500    -999.2500     128.6200    -999.2500    -999.2500
   1199.3879      13.8590     143.2681     146.1200      47.6880       0.5444    -999.2500    -999.2500       1.8672    -999.2500    -999.2500     128.2500    -999.2500    -999.2500
   1199.5404      13.8200     142.9941     145.3700      47.2810       0.5054    -999.2500    -999.2500       1.8574    -999.2500    -999.2500     130.1200    -999.2500    -999.2500
   1199.6927      13.7730     144.1258     146.1200      50.0000       0.4629    -999.2500    -999.2500       1.8447    -999.2500    -999.2500     130.6200    -999.2500    -999.2500
   1199.8452      13.7270     146.8566     148.3700      50.4690       0.4819    -999.2500    -999.2500       1.8418    -999.2500    -999.2500     129.2500    -999.2500    -999.2500
   1199.9976      13.6090     150.1146     152.1200      51.9690       0.5220    -999.2500    -999.2500       1.8389    -999.2500    -999.2500     128.1200    -999.2500    -999.2500
   1200.1500      13.4920     152.8325     154.7500      53.0000       0.4961    -999.2500    -999.2500       1.8516    -999.2500    -999.2500     127.8100    -999.2500    -999.2500
