#------------------------------------------------------------------------------
#
#   Created by  : [OpenWorks] Log Export Utility (LEXP)
#   Created on  : 2002-04-08 13:44:35
#   Project     : AREA_58_60_21DEC
#   User        : G15173
#   Interpreter : RONHO
#
#------------------------------------------------------------------------------
~VERSION INFORMATION
VERS. 2.0 : CWLS Log ASCII Standard - version 2.0
WRAP.  NO : One line per depth step
~WELL INFORMATION
#MNEMONIC   .UNIT                                           VALUE :DESCRIPTION
#------------------------------------------------------------------------------
STRT        .M                                           575.3100 :START DEPTH
STOP        .M                                          3739.8960 :STOP DEPTH
STEP        .M                                             0.1524 :STEP
NULL        .                                           -999.2500 :NULL VALUE
COMP        .                                             UNKNOWN :COMPANY
WELL        .                                           15/9-A-16 :WELL
FLD         .                                            SLEIPNER :FIELD
LOC         .                                             UNKNOWN :LOCATION
CNTY        .                                             UNKNOWN :COUNTY
STAT        .                                             UNKNOWN :STATE
CTRY        .                                              Norway :COUNTRY
SRVC        .                                             UNKNOWN :SERVICE COMPANY
DATE        .                                             UNKNOWN :LOG DATE
UWI         .                                        NO 15/9-A-16 :UNIQUE WELL ID
XCOORD      .                                       436137.417107 :SURFACE X
YCOORD      .                                      6470282.857379 :SURFACE Y
LAT         .                                           58.367417 :LATITUDE
LON         .                                            1.908404 :LONGITUDE
ELEV        .M                                            78.0000 :SURFACE ELEV
ELEV_TYPE   .                                                  KB :ELEV TYPE
~CURVE INFORMATION
#MNEMONIC.UNIT        API CODE       : CURVE DESCRIPTION
#------------------------------------------------------------------------------
DEPTH    .M                          : Measured Depth
TVD      .M                          : True Vertical Depth (TVD)
GR       .API                        : GR:SFINX:rC:NONE:v1 
NPHI     .v/v_decimal                : NPHI:SFINX:rC:NONE:v1 
PHIF     .v/v_decimal                : PHIF:SFINX:rC:NONE:v1 
RHOB     .g/cm3                      : RHOB:SFINX:rC:NONE:v1 
RT       .ohm.m                      : RT:SFINX:rC:NONE:v1 
~A     DEPTH         TVD           GR         NPHI         PHIF         RHOB           RT
# ...
    588.8736    570.5269      74.8630    -999.2500    -999.2500    -999.2500       1.5380
    589.0260    570.6579      74.8990    -999.2500    -999.2500    -999.2500       1.5510
    589.1784    570.7889      75.8740    -999.2500    -999.2500    -999.2500       1.5780
    589.3308    570.9199      76.3610    -999.2500    -999.2500    -999.2500       1.5910
    589.4832    571.0509      77.3360    -999.2500    -999.2500    -999.2500       1.6180
    589.6356    571.1819      77.8230    -999.2500    -999.2500    -999.2500       1.6310
    589.7880    571.3129      78.7980    -999.2500    -999.2500    -999.2500       1.6350
    589.9404    571.4439      79.2850    -999.2500    -999.2500    -999.2500       1.6270
    590.0928    571.5749      80.2600    -999.2500    -999.2500    -999.2500       1.6140
    590.2452    571.7059      80.7470    -999.2500    -999.2500    -999.2500       1.6150
    590.3976    571.8369      82.1310    -999.2500    -999.2500    -999.2500       1.6180
    590.5500    571.9679      82.8230    -999.2500    -999.2500    -999.2500       1.6190
    590.7024    572.0989      84.2070    -999.2500    -999.2500    -999.2500       1.6210
    590.8548    572.2299      85.5910    -999.2500    -999.2500    -999.2500       1.6240
    591.0072    572.3609      86.2830    -999.2500    -999.2500    -999.2500       1.6250
    591.1596    572.4919      87.6670    -999.2500    -999.2500    -999.2500       1.6280
    591.3120    572.6229      88.3590    -999.2500    -999.2500    -999.2500       1.6290
    591.4644    572.7539      89.7430    -999.2500    -999.2500    -999.2500       1.6340
    591.6168    572.8849      90.4350    -999.2500    -999.2500    -999.2500       1.6380
    591.7692    573.0159      91.8190    -999.2500    -999.2500    -999.2500       1.6470
    591.9216    573.1469      92.4420    -999.2500    -999.2500    -999.2500       1.6520
    592.0740    573.2779      90.1840    -999.2500    -999.2500    -999.2500       1.6610
    592.2264    573.4089      89.0550    -999.2500    -999.2500    -999.2500       1.6650
    592.3788    573.5399      86.7960    -999.2500    -999.2500    -999.2500       1.6740
    592.5312    573.6709      85.6670    -999.2500    -999.2500    -999.2500       1.6750
    592.6836    573.8019      83.4090    -999.2500    -999.2500    -999.2500       1.6480
    592.8360    573.9329      82.2800    -999.2500    -999.2500    -999.2500       1.6350
    592.9884    574.0639      80.0220    -999.2500    -999.2500    -999.2500       1.6080
    593.1408    574.1949      78.8930    -999.2500    -999.2500    -999.2500       1.5980
    593.2932    574.3259      78.4920    -999.2500    -999.2500    -999.2500       1.5980
    593.4456    574.4569      78.4290    -999.2500    -999.2500    -999.2500       1.5980
    593.5980    574.5866      78.3040    -999.2500    -999.2500    -999.2500       1.5980
    593.7504    574.7163      78.1790    -999.2500    -999.2500    -999.2500       1.5980
    593.9028    574.8460      78.1170    -999.2500    -999.2500    -999.2500       1.5980
    594.0552    574.9757      77.9920    -999.2500    -999.2500    -999.2500       1.5980
    594.2076    575.1054      77.9290    -999.2500    -999.2500    -999.2500       1.5980
    594.3600    575.2352      77.8230    -999.2500    -999.2500    -999.2500       1.6020
    594.5124    575.3649      78.0000    -999.2500    -999.2500    -999.2500       1.6060
    594.6648    575.4946      78.3550    -999.2500    -999.2500    -999.2500       1.6130
    594.8172    575.6243      78.5320    -999.2500    -999.2500    -999.2500       1.6170
    594.9696    575.7540      78.8860    -999.2500    -999.2500    -999.2500       1.6250
    595.1220    575.8837      79.0630    -999.2500    -999.2500    -999.2500       1.6290
    595.2744    576.0134      79.4180    -999.2500    -999.2500    -999.2500       1.6360
    595.4268    576.1431      79.5950    -999.2500    -999.2500    -999.2500       1.6400
    595.5792    576.2728      79.9490    -999.2500    -999.2500    -999.2500       1.6450
    595.7316    576.4025      80.1270    -999.2500    -999.2500    -999.2500       1.6440
    595.8840    576.5322      80.4810    -999.2500    -999.2500    -999.2500       1.6420
    596.0364    576.6619      80.6580    -999.2500    -999.2500    -999.2500       1.6410
    596.1888    576.7916      81.1610    -999.2500    -999.2500    -999.2500       1.6390
    596.3412    576.9214      81.5740    -999.2500    -999.2500    -999.2500       1.6380
    596.4936    577.0511      82.4020    -999.2500    -999.2500    -999.2500       1.6360
    596.6460    577.1808      82.8160    -999.2500    -999.2500    -999.2500       1.6350
    596.7984    577.3105      83.6430    -999.2500    -999.2500    -999.2500       1.6330
    596.9508    577.4402      84.4700    -999.2500    -999.2500    -999.2500       1.6310
    597.1032    577.5699      84.8840    -999.2500    -999.2500    -999.2500       1.6300
    597.2556    577.6996      85.3010    -999.2500    -999.2500    -999.2500       1.6270
    597.4080    577.8293      85.4700    -999.2500    -999.2500    -999.2500       1.6240
    597.5604    577.9590      85.8070    -999.2500    -999.2500    -999.2500       1.6190
    597.7128    578.0887      85.9760    -999.2500    -999.2500    -999.2500       1.6170
    597.8652    578.2184      86.3130    -999.2500    -999.2500    -999.2500       1.6120
    598.0176    578.3481      86.4820    -999.2500    -999.2500    -999.2500       1.6090
    598.1700    578.4779      86.8190    -999.2500    -999.2500    -999.2500       1.6040
    598.3224    578.6076      86.9880    -999.2500    -999.2500    -999.2500       1.6020
    598.4748    578.7373      87.3250    -999.2500    -999.2500    -999.2500       1.5980
    598.6272    578.8665      87.7580    -999.2500    -999.2500    -999.2500       1.5970
    598.7796    578.9956      88.6230    -999.2500    -999.2500    -999.2500       1.5940
    598.9320    579.1248      89.0550    -999.2500    -999.2500    -999.2500       1.5930
    599.0844    579.2539      89.9200    -999.2500    -999.2500    -999.2500       1.5910
    599.2368    579.3831      90.3530    -999.2500    -999.2500    -999.2500       1.5890
    599.3892    579.5122      91.2180    -999.2500    -999.2500    -999.2500       1.5870
    599.5416    579.6414      91.6510    -999.2500    -999.2500    -999.2500       1.5850
    599.6940    579.7704      92.5160    -999.2500    -999.2500    -999.2500       1.5830
    599.8464    579.8996      92.9480    -999.2500    -999.2500    -999.2500       1.5840
    599.9988    580.0287      93.8130    -999.2500    -999.2500    -999.2500       1.5860
    600.1512    580.1578      94.6350    -999.2500    -999.2500    -999.2500       1.5880
    600.3036    580.2870      94.2530    -999.2500    -999.2500    -999.2500       1.5890
    600.4560    580.4161      93.4910    -999.2500    -999.2500    -999.2500       1.5900
    600.6084    580.5453      93.1090    -999.2500    -999.2500    -999.2500       1.5910
    600.7608    580.6744      92.3470    -999.2500    -999.2500    -999.2500       1.5930
    600.9132    580.8036      91.9650    -999.2500    -999.2500    -999.2500       1.5940
    601.0656    580.9327      91.2030    -999.2500    -999.2500    -999.2500       1.5960
    601.2180    581.0619      90.8210    -999.2500    -999.2500    -999.2500       1.5970
    601.3704    581.1910      90.2490    -999.2500    -999.2500    -999.2500       1.5980
    601.5228    581.3202      90.1170    -999.2500    -999.2500    -999.2500       1.5980
    601.6752    581.4493      89.8540    -999.2500    -999.2500    -999.2500       1.5980
    601.8276    581.5784      89.7220    -999.2500    -999.2500    -999.2500       1.5980
    601.9800    581.7076      89.4590    -999.2500    -999.2500    -999.2500       1.5980
    602.1324    581.8367      89.3270    -999.2500    -999.2500    -999.2500       1.5980
    602.2848    581.9659      89.0640    -999.2500    -999.2500    -999.2500       1.5980
