#------------------------------------------------------------------------------
#
#   Created by  : [OpenWorks] Log Export Utility (LEXP)
#   Created on  : 2002-04-08 13:44:35
#   Project     : AREA_58_60_21DEC
#   User        : G15173
#   Interpreter : RONHO
#
#------------------------------------------------------------------------------
~VERSION INFORMATION
VERS. 2.0 : CWLS Log ASCII Standard - version 2.0
WRAP.  NO : One line per depth step
~WELL INFORMATION
#MNEMONIC   .UNIT                                           VALUE :DESCRIPTION
#------------------------------------------------------------------------------
STRT        .M                                           575.3100 :START DEPTH
STOP        .M                                          3739.8960 :STOP DEPTH
STEP        .M                                             0.1524 :STEP
NULL        .                                           -999.2500 :NULL VALUE
COMP        .                                             UNKNOWN :COMPANY
WELL        .                                           15/9-A-16 :WELL
FLD         .                                            SLEIPNER :FIELD
LOC         .                                             UNKNOWN :LOCATION
CNTY        .                                             UNKNOWN :COUNTY
STAT        .                                             UNKNOWN :STATE
CTRY        .                                              Norway :COUNTRY
SRVC        .                                             UNKNOWN :SERVICE COMPANY
DATE        .                                             UNKNOWN :LOG DATE
UWI         .                                        NO 15/9-A-16 :UNIQUE WELL ID
XCOORD      .                                       436137.417107 :SURFACE X
YCOORD      .                                      6470282.857379 :SURFACE Y
LAT         .                                           58.367417 :LATITUDE
LON         .                                            1.908404 :LONGITUDE
ELEV        .M                                            78.0000 :SURFACE ELEV
ELEV_TYPE   .                                                  KB :ELEV TYPE
~CURVE INFORMATION
#MNEMONIC.UNIT        API CODE       : CURVE DESCRIPTION
#------------------------------------------------------------------------------
DEPTH    .M                          : Measured Depth
TVD      .M                          : True Vertical Depth (TVD)
GR       .API                        : GR:SFINX:rC:NONE:v1 
NPHI     .v/v_decimal                : NPHI:SFINX:rC:NONE:v1 
PHIF     .v/v_decimal                : PHIF:SFINX:rC:NONE:v1 
RHOB     .g/cm3                      : RHOB:SFINX:rC:NONE:v1 
RT       .ohm.m                      : RT:SFINX:rC:NONE:v1 
~A     DEPTH         TVD           GR         NPHI         PHIF         RHOB           RT
# ...
   2284.3235    982.0127      43.9430       0.3739       0.3986       1.9940       0.8590
   2284.4761    982.0342      45.4080       0.3807       0.3988       1.9930       0.8470
   2284.6284    982.0555      46.1410       0.3840       0.4061       1.9920       0.8410
   2284.7808    982.0770      47.6060       0.3908       0.4133       1.9870       0.8290
   2284.9331    982.0984      47.8490       0.3942       0.4206       1.9810       0.8230
   2285.0857    982.1198      46.9520       0.4034       0.4206       1.9700       0.8130
   2285.2380    982.1412      46.5040       0.4122       0.4206       1.9650       0.8120
   2285.3904    982.1626      45.6070       0.4299       0.4206       1.9560       0.8100
   2285.5427    982.1840      45.1590       0.4388       0.4206       1.9560       0.8080
   2285.6953    982.2054      44.3900       0.4565       0.4149       1.9560       0.8060
   2285.8477    982.2269      43.7980       0.4607       0.4093       1.9560       0.8050
   2286.0000    982.2483      42.6150       0.4219       0.4036       1.9680       0.8040
   2286.1523    982.2697      41.4310       0.3831       0.4038       1.9790       0.8040
   2286.3047    982.2911      40.8400       0.3637       0.4040       1.9840       0.8040
   2286.4573    982.3125      40.0500       0.3249       0.4042       1.9840       0.8040
   2286.6096    982.3339      40.0850       0.3231       0.4014       1.9840       0.8040
   2286.7620    982.3553      40.1560       0.3135       0.3985       1.9830       0.8040
   2286.9143    982.3767      40.1910       0.3087       0.3956       1.9830       0.8010
   2287.0669    982.3981      40.2610       0.2991       0.3927       1.9940       0.7960
   2287.2192    982.4196      40.2960       0.2943       0.3921       1.9990       0.7930
   2287.3716    982.4410      41.5360       0.2873       0.3915       2.0040       0.7880
   2287.5239    982.4623      42.7500       0.2834       0.3909       2.0050       0.7860
   2287.6765    982.4838      45.1790       0.2756       0.3925       2.0070       0.7860
   2287.8289    982.5052      46.3930       0.2717       0.3941       2.0030       0.7860
   2287.9812    982.5266      48.8220       0.2639       0.3958       2.0020       0.7860
   2288.1335    982.5480      50.0360       0.2601       0.3962       2.0000       0.7860
   2288.2859    982.5694      48.3060       0.2694       0.3966       1.9980       0.7860
   2288.4385    982.5909      46.4590       0.2791       0.3970       1.9960       0.7860
   2288.5908    982.6124      42.7640       0.2985       0.3968       1.9950       0.7850
   2288.7432    982.6338      40.9160       0.3026       0.3967       1.9950       0.7840
   2288.8955    982.6553      37.7440       0.3026       0.3965       1.9950       0.7840
   2289.0481    982.6768      38.6130       0.3131       0.3964       1.9950       0.7830
   2289.2004    982.6982      40.3500       0.3236       0.3958       1.9960       0.7830
   2289.3528    982.7197      42.0870       0.3172       0.3952       1.9960       0.7820
   2289.5051    982.7411      42.9560       0.3140       0.3945       1.9970       0.7810
   2289.6577    982.7626      44.1190       0.3098       0.3943       1.9980       0.7810
   2289.8101    982.7840      44.4170       0.3229       0.3941       1.9980       0.7800
   2289.9624    982.8055      45.0150       0.3491       0.3939       2.0000       0.7800
   2290.1147    982.8269      45.3130       0.3622       0.3944       2.0000       0.7830
   2290.2671    982.8484      45.9110       0.3885       0.3948       1.9990       0.7890
   2290.4197    982.8699      46.2090       0.4010       0.3953       1.9990       0.7920
   2290.5720    982.8913      46.2670       0.4010       0.3958       1.9980       0.7980
   2290.7244    982.9128      46.1100       0.4010       0.3950       1.9980       0.8010
   2290.8767    982.9342      45.7960       0.3612       0.3941       1.9970       0.8030
   2291.0293    982.9557      45.6390       0.3413       0.3933       1.9980       0.8030
   2291.1816    982.9771      45.3250       0.3099       0.3931       1.9990       0.8020
   2291.3340    982.9986      45.2720       0.3099       0.3929       2.0000       0.8020
   2291.4863    983.0200      43.1860       0.3083       0.3927       2.0010       0.8010
   2291.6389    983.0415      42.1440       0.3076       0.3903       2.0020       0.8010
   2291.7913    983.0630      40.0580       0.3060       0.3879       2.0040       0.8020
   2291.9436    983.0844      39.0160       0.3052       0.3855       2.0060       0.8020
   2292.0959    983.1058      39.4130       0.3077       0.3853       2.0090       0.8030
   2292.2483    983.1273      40.8100       0.3104       0.3852       2.0110       0.8030
   2292.4009    983.1488      43.6050       0.3158       0.3850       2.0140       0.8040
   2292.5532    983.1702      45.4130       0.3211       0.3848       2.0160       0.8050
   2292.7056    983.1917      44.9490       0.3238       0.3838       2.0160       0.8060
   2292.8579    983.2131      44.9490       0.3253       0.3828       2.0180       0.8080
   2293.0105    983.2346      44.6960       0.3253       0.3818       2.0180       0.8090
   2293.1628    983.2561      45.3610       0.3253       0.3812       2.0190       0.8100
   2293.3152    983.2775      45.6930       0.3253       0.3806       2.0200       0.8090
   2293.4675    983.2990      46.3580       0.3253       0.3800       2.0210       0.8070
   2293.6201    983.3206      46.4240       0.3253       0.3798       2.0220       0.8060
   2293.7725    983.3420      45.5690       0.3043       0.3796       2.0230       0.8040
   2293.9248    983.3635      45.1420       0.2937       0.3794       2.0230       0.8040
   2294.0771    983.3850      44.2870       0.2727       0.3783       2.0250       0.8170
   2294.2295    983.4066      43.8590       0.2621       0.3773       2.0250       0.8180
   2294.3821    983.4280      43.6490       0.2455       0.3762       2.0270       0.7970
   2294.5344    983.4495      43.7900       0.2455       0.3752       2.0280       0.7950
   2294.6868    983.4711      44.0710       0.2594       0.3752       2.0300       0.7900
   2294.8391    983.4926      44.2110       0.2664       0.3752       2.0300       0.7890
   2294.9917    983.5141      44.4920       0.2803       0.3752       2.0310       0.7860
   2295.1440    983.5356      44.6330       0.2872       0.3752       2.0310       0.7840
   2295.2964    983.5571      44.8300       0.2848       0.3752       2.0310       0.7810
   2295.4487    983.5786      44.9990       0.2809       0.3752       2.0310       0.7800
   2295.6013    983.6001      45.3370       0.2732       0.3752       2.0310       0.7800
   2295.7537    983.6216      45.6750       0.2655       0.3752       2.0310       0.7800
   2295.9060    983.6431      45.8140       0.2617       0.3752       2.0310       0.7800
   2296.0583    983.6646      44.5410       0.2594       0.3752       2.0310       0.7800
   2296.2107    983.6860      43.9040       0.2619       0.3752       2.0310       0.7800
   2296.3633    983.7076      42.6310       0.2668       0.3752       2.0310       0.7790
   2296.5156    983.7291      41.9950       0.2692       0.3752       2.0310       0.7790
   2296.6680    983.7505      40.7220       0.2741       0.3749       2.0320       0.7780
   2296.8203    983.7721      40.5930       0.2765       0.3747       2.0320       0.7780
   2296.9729    983.7936      42.3620       0.2872       0.3745       2.0320       0.7770
   2297.1252    983.8151      43.2470       0.2925       0.3735       2.0320       0.7860
   2297.2776    983.8366      45.0170       0.3032       0.3725       2.0330       0.8050
   2297.4299    983.8581      45.9020       0.3086       0.3715       2.0340       0.8140
   2297.5825    983.8796      47.3060       0.3171       0.3723       2.0350       0.8320
   2297.7349    983.9011      46.8170       0.3171       0.3730       2.0360       0.8410
