#------------------------------------------------------------------------------
#
#   Created by  : [OpenWorks] Log Export Utility (LEXP)
#   Created on  : 2002-04-08 13:44:35
#   Project     : AREA_58_60_21DEC
#   User        : G15173
#   Interpreter : RONHO
#
#------------------------------------------------------------------------------
~VERSION INFORMATION
VERS. 2.0 : CWLS Log ASCII Standard - version 2.0
WRAP.  NO : One line per depth step
~WELL INFORMATION
#MNEMONIC   .UNIT                                           VALUE :DESCRIPTION
#------------------------------------------------------------------------------
STRT        .M                                           575.3100 :START DEPTH
STOP        .M                                          3739.8960 :STOP DEPTH
STEP        .M                                             0.1524 :STEP
NULL        .                                           -999.2500 :NULL VALUE
COMP        .                                             UNKNOWN :COMPANY
WELL        .                                           15/9-A-16 :WELL
FLD         .                                            SLEIPNER :FIELD
LOC         .                                             UNKNOWN :LOCATION
CNTY        .                                             UNKNOWN :COUNTY
STAT        .                                             UNKNOWN :STATE
CTRY        .                                              Norway :COUNTRY
SRVC        .                                             UNKNOWN :SERVICE COMPANY
DATE        .                                             UNKNOWN :LOG DATE
UWI         .                                        NO 15/9-A-16 :UNIQUE WELL ID
XCOORD      .                                       436137.417107 :SURFACE X
YCOORD      .                                      6470282.857379 :SURFACE Y
LAT         .                                           58.367417 :LATITUDE
LON         .                                            1.908404 :LONGITUDE
ELEV        .M                                            78.0000 :SURFACE ELEV
ELEV_TYPE   .                                                  KB :ELEV TYPE
~CURVE INFORMATION
#MNEMONIC.UNIT        API CODE       : CURVE DESCRIPTION
#------------------------------------------------------------------------------
DEPTH    .M                          : Measured Depth
TVD      .M                          : True Vertical Depth (TVD)
GR       .API                        : GR:SFINX:rC:NONE:v1 
NPHI     .v/v_decimal                : NPHI:SFINX:rC:NONE:v1 
PHIF     .v/v_decimal                : PHIF:SFINX:rC:NONE:v1 
RHOB     .g/cm3                      : RHOB:SFINX:rC:NONE:v1 
RT       .ohm.m                      : RT:SFINX:rC:NONE:v1 
~A     DEPTH         TVD           GR         NPHI         PHIF         RHOB           RT
# ...
   3518.6111   1128.2906      42.7130       0.3396       0.3836       2.0170       0.8550
   3518.7637   1128.3101      45.0500       0.3557       0.3873       2.0110       0.8790
   3518.9160   1128.3296      46.1270       0.3570       0.3873       2.0110       0.8820
   3519.0684   1128.3490      46.5990       0.3467       0.3885       2.0090       0.8920
   3519.2207   1128.3684      45.7580       0.3364       0.3885       2.0090       0.8930
   3519.3733   1128.3878      45.0060       0.3159       0.3891       2.0080       0.8960
   3519.5256   1128.4072      44.2530       0.3056       0.3897       2.0070       0.8970
   3519.6780   1128.4266      43.1620       0.3054       0.3891       2.0080       0.8890
   3519.8303   1128.4460      42.8350       0.3166       0.3873       2.0110       0.8910
   3519.9829   1128.4656      43.1570       0.3388       0.3842       2.0160       0.8900
   3520.1353   1128.4850      44.0150       0.3499       0.3830       2.0180       0.8860
   3520.2876   1128.5044      45.0650       0.3512       0.3824       2.0190       0.8810
   3520.4399   1128.5238      45.3630       0.3512       0.3818       2.0200       0.8790
   3520.5923   1128.5435      46.6030       0.3157       0.3812       2.0210       0.8750
   3520.7449   1128.5630      47.1380       0.2979       0.3812       2.0210       0.8750
   3520.8972   1128.5826      45.7030       0.2806       0.3806       2.0220       0.8770
   3521.0496   1128.6023      45.5730       0.2806       0.3806       2.0220       0.8780
   3521.2019   1128.6218      45.4400       0.2904       0.3806       2.0220       0.8770
   3521.3545   1128.6415      44.2110       0.3099       0.3806       2.0220       0.8720
   3521.5068   1128.6611      44.0180       0.3179       0.3806       2.0220       0.8680
   3521.6592   1128.6807      44.1680       0.3179       0.3806       2.0220       0.8620
   3521.8115   1128.7003      44.4010       0.3179       0.3806       2.0220       0.8620
   3521.9641   1128.7200      46.0780       0.3179       0.3806       2.0220       0.8820
   3522.1165   1128.7395      46.2160       0.3179       0.3806       2.0220       0.8860
   3522.2688   1128.7592      48.6310       0.3179       0.3806       2.0220       0.8830
   3522.4211   1128.7787      47.5030       0.3179       0.3800       2.0230       0.8820
   3522.5735   1128.7983      45.9250       0.3230       0.3782       2.0260       0.8820
   3522.7261   1128.8180      45.1760       0.3255       0.3776       2.0270       0.8820
   3522.8784   1128.8375      44.7470       0.3295       0.3764       2.0290       0.8860
   3523.0308   1128.8572      43.7540       0.3295       0.3764       2.0290       0.8890
   3523.1831   1128.8767      44.9480       0.3258       0.3776       2.0270       0.8920
   3523.3357   1128.8964      45.1610       0.3221       0.3788       2.0250       0.8930
   3523.4880   1128.9160      45.7870       0.3160       0.3812       2.0210       0.8890
   3523.6404   1128.9355      45.7870       0.3160       0.3818       2.0200       0.8910
   3523.7927   1128.9552      46.4010       0.3189       0.3812       2.0210       0.8900
   3523.9453   1128.9749      46.1740       0.3217       0.3806       2.0220       0.8870
   3524.0977   1128.9944      46.0620       0.3274       0.3788       2.0250       0.8810
   3524.2500   1129.0140      46.1720       0.3288       0.3788       2.0260       0.8790
   3524.4023   1129.0336      46.9200       0.3288       0.3788       2.0250       0.8930
   3524.5547   1129.0532      47.2810       0.3156       0.3794       2.0240       0.9070
   3524.7073   1129.0729      47.2550       0.3090       0.3800       2.0230       0.9080
   3524.8596   1129.0924      46.1500       0.3000       0.3806       2.0220       0.9040
   3525.0120   1129.1121      46.0840       0.3000       0.3806       2.0220       0.8950
   3525.1643   1129.1317      44.6500       0.3016       0.3788       2.0250       0.8820
   3525.3169   1129.1512      44.9090       0.3023       0.3776       2.0270       0.8750
   3525.4692   1129.1709      45.4880       0.3039       0.3752       2.0310       0.8720
   3525.6216   1129.1906      45.8790       0.3040       0.3752       2.0310       0.8720
   3525.7739   1129.2101      45.7240       0.3080       0.3764       2.0290       0.8750
   3525.9265   1129.2297      45.7030       0.3119       0.3776       2.0270       0.8790
   3526.0789   1129.2494      44.1520       0.3198       0.3812       2.0210       0.8800
   3526.2312   1129.2689      43.0040       0.3237       0.3818       2.0200       0.8820
   3526.3835   1129.2886      41.4790       0.3270       0.3818       2.0200       0.8850
   3526.5359   1129.3082      40.9140       0.3205       0.3842       2.0160       0.8860
   3526.6885   1129.3279      41.2810       0.3075       0.3885       2.0090       0.8890
   3526.8408   1129.3474      41.4590       0.3010       0.3909       2.0050       0.8890
   3526.9932   1129.3671      42.1320       0.2900       0.3909       2.0050       0.8860
   3527.1455   1129.3866      41.8630       0.2900       0.3909       2.0050       0.8830
   3527.2981   1129.4062      42.0790       0.2987       0.3909       2.0050       0.8720
   3527.4504   1129.4259      42.6880       0.3074       0.3915       2.0040       0.8750
   3527.6028   1129.4456      42.6880       0.3108       0.3909       2.0050       0.8750
   3527.7551   1129.4651      43.1440       0.3108       0.3897       2.0070       0.8750
   3527.9077   1129.4847      43.1800       0.3108       0.3885       2.0090       0.8800
   3528.0601   1129.5044      46.5490       0.3056       0.3824       2.0190       0.8840
   3528.2124   1129.5239      46.7570       0.3029       0.3818       2.0200       0.8860
   3528.3647   1129.5436      46.2600       0.3013       0.3800       2.0230       0.8790
   3528.5171   1129.5632      46.0010       0.3013       0.3800       2.0230       0.8790
   3528.6697   1129.5829      45.4370       0.3178       0.3770       2.0280       0.8790
   3528.8220   1129.6024      45.0600       0.3261       0.3770       2.0280       0.8810
   3528.9744   1129.6221      44.3380       0.3323       0.3758       2.0300       0.8810
   3529.1267   1129.6417      44.2420       0.3323       0.3758       2.0300       0.8790
   3529.2793   1129.6613      44.3290       0.3275       0.3776       2.0270       0.8790
   3529.4316   1129.6809      44.3290       0.3226       0.3776       2.0270       0.8790
   3529.5840   1129.7006      44.2310       0.3149       0.3794       2.0240       0.8680
   3529.7363   1129.7201      44.2590       0.3149       0.3800       2.0230       0.8780
   3529.8889   1129.7397      45.5050       0.3063       0.3818       2.0200       0.8910
   3530.0413   1129.7594      45.7620       0.2977       0.3824       2.0190       0.8960
   3530.1936   1129.7789      46.6400       0.2832       0.3818       2.0200       0.8970
   3530.3459   1129.7986      47.7180       0.2832       0.3812       2.0210       0.8970
   3530.4983   1129.8182      48.9770       0.2949       0.3836       2.0170       0.8970
   3530.6509   1129.8380      49.2310       0.3098       0.3867       2.0120       0.8830
   3530.8032   1129.8578      48.4980       0.3109       0.3867       2.0120       0.8820
   3530.9556   1129.8776      47.0020       0.3122       0.3867       2.0120       0.8750
   3531.1079   1129.8973      46.0720       0.3112       0.3867       2.0120       0.8770
   3531.2605   1129.9171      44.7870       0.3105       0.3855       2.0140       0.8840
   3531.4128   1129.9369      44.2140       0.3101       0.3848       2.0150       0.8890
   3531.5652   1129.9567      44.5720       0.3067       0.3848       2.0150       0.8890
   3531.7175   1129.9764      44.5720       0.3064       0.3848       2.0150       0.8890
   3531.8701   1129.9963      45.0430       0.3015       0.3848       2.0150       0.8750
   3532.0225   1130.0161      45.0960       0.3009       0.3848       2.0150       0.8750
