#------------------------------------------------------------------------------
#
#   Created by  : [OpenWorks] Log Export Utility (LEXP)
#   Created on  : 2002-04-08 13:44:35
#   Project     : AREA_58_60_21DEC
#   User        : G15173
#   Interpreter : RONHO
#
#------------------------------------------------------------------------------
~VERSION INFORMATION
VERS. 2.0 : CWLS Log ASCII Standard - version 2.0
WRAP.  NO : One line per depth step
~WELL INFORMATION
#MNEMONIC   .UNIT                                           VALUE :DESCRIPTION
#------------------------------------------------------------------------------
STRT        .M                                           575.3100 :START DEPTH
STOP        .M                                          3739.8960 :STOP DEPTH
STEP        .M                                             0.1524 :STEP
NULL        .                                           -999.2500 :NULL VALUE
COMP        .                                             UNKNOWN :COMPANY
WELL        .                                           15/9-A-16 :WELL
FLD         .                                            SLEIPNER :FIELD
LOC         .                                             UNKNOWN :LOCATION
CNTY        .                                             UNKNOWN :COUNTY
STAT        .                                             UNKNOWN :STATE
CTRY        .                                              Norway :COUNTRY
SRVC        .                                             UNKNOWN :SERVICE COMPANY
DATE        .                                             UNKNOWN :LOG DATE
UWI         .                                        NO 15/9-A-16 :UNIQUE WELL ID
XCOORD      .                                       436137.417107 :SURFACE X
YCOORD      .                                      6470282.857379 :SURFACE Y
LAT         .                                           58.367417 :LATITUDE
LON         .                                            1.908404 :LONGITUDE
ELEV        .M                                            78.0000 :SURFACE ELEV
ELEV_TYPE   .                                                  KB :ELEV TYPE
~CURVE INFORMATION
#MNEMONIC.UNIT        API CODE       : CURVE DESCRIPTION
#------------------------------------------------------------------------------
DEPTH    .M                          : Measured Depth
TVD      .M                          : True Vertical Depth (TVD)
GR       .API                        : GR:SFINX:rC:NONE:v1 
NPHI     .v/v_decimal                : NPHI:SFINX:rC:NONE:v1 
PHIF     .v/v_decimal                : PHIF:SFINX:rC:NONE:v1 
RHOB     .g/cm3                      : RHOB:SFINX:rC:NONE:v1 
RT       .ohm.m                      : RT:SFINX:rC:NONE:v1 
~A     DEPTH         TVD           GR         NPHI         PHIF         RHOB           RT
# ...
   3722.0652   1158.7079      94.6660       0.3833       0.3309       2.1040       2.3070
   3722.2175   1158.7343      94.4240       0.3864       0.3309       2.1040       2.2920
   3722.3701   1158.7607      93.6680       0.3762       0.3345       2.0980       2.2780
   3722.5225   1158.7872      92.5930       0.3659       0.3345       2.0980       2.2280
   3722.6748   1158.8136      91.4220       0.3583       0.3352       2.0970       2.1010
   3722.8271   1158.8401      91.3670       0.3583       0.3352       2.0970       2.0470
   3722.9795   1158.8665      88.9360       0.3637       0.3364       2.0950       2.0080
   3723.1321   1158.8929      88.8890       0.3608       0.3364       2.0950       2.0530
   3723.2844   1158.9194      90.6090       0.3508       0.3400       2.0890       2.1170
   3723.4368   1158.9458      93.5640       0.3433       0.3418       2.0860       2.1340
   3723.5891   1158.9723      98.4940       0.3732       0.3479       2.0760       2.1950
   3723.7417   1158.9988     100.3680       0.3861       0.3497       2.0730       2.2070
   3723.8940   1159.0251     102.1940       0.4050       0.3497       2.0730       2.2010
   3724.0464   1159.0516     102.8610       0.4240       0.3436       2.0830       2.1950
   3724.1987   1159.0781     102.2270       0.4427       0.3358       2.0960       2.2280
   3724.3513   1159.1046     100.6810       0.4368       0.3339       2.0990       2.1870
   3724.5037   1159.1310      98.9940       0.4308       0.3333       2.1000       2.2070
   3724.6560   1159.1575      98.3310       0.4275       0.3315       2.1030       2.2140
   3724.8083   1159.1838      97.9840       0.4275       0.3303       2.1050       2.1940
   3724.9607   1159.2103      98.0870       0.3748       0.3291       2.1070       2.1880
   3725.1133   1159.2368      99.0450       0.3713       0.3279       2.1090       2.1870
   3725.2656   1159.2632      99.7040       0.3689       0.3285       2.1080       2.0970
   3725.4180   1159.2897     100.3680       0.3666       0.3285       2.1080       2.0890
   3725.5703   1159.3160     101.0710       0.4303       0.3297       2.1060       2.0390
   3725.7229   1159.3425     101.1370       0.4376       0.3303       2.1050       2.0820
   3725.8752   1159.3690     100.7370       0.4388       0.3303       2.1050       2.1400
   3726.0276   1159.3954      99.8590       0.4388       0.3297       2.1060       2.1210
   3726.1799   1159.4219     100.5440       0.4256       0.3291       2.1070       2.0820
   3726.3325   1159.4484     101.1770       0.4124       0.3291       2.1070       2.0530
   3726.4849   1159.4747     100.4220       0.3664       0.3315       2.1030       2.0020
   3726.6372   1159.5012     100.3200       0.3497       0.3345       2.0980       1.9790
   3726.7896   1159.5277      98.0440       0.3835       0.3364       2.0950       1.9820
   3726.9419   1159.5542      95.9840       0.3835       0.3370       2.0940       1.9910
   3727.0945   1159.5808      86.3000       0.3971       0.3376       2.0930       1.8570
   3727.2468   1159.6073      83.0060       0.4035       0.3382       2.0920       1.8250
   3727.3992   1159.6338      75.3120       0.3508       0.3400       2.0890       1.9160
   3727.5515   1159.6603      69.7640       0.3501       0.3436       2.0830       1.8510
   3727.7041   1159.6868      67.2130       0.3495       0.3448       2.0810       1.8670
   3727.8564   1159.7133      66.9180       0.3486       0.3503       2.0720       2.0390
   3728.0088   1159.7397      67.9110       0.3295       0.3521       2.0690       2.0890
   3728.1611   1159.7662      68.7360       0.2914       0.3509       2.0710       2.1270
   3728.3135   1159.7927      67.2890       0.2887       0.3485       2.0750       1.8770
   3728.4661   1159.8193      64.5620       0.3445       0.3406       2.0880       1.6970
   3728.6184   1159.8458      61.1510       0.3708       0.3400       2.0890       1.7490
   3728.7708   1159.8723      53.0340       0.3458       0.3448       2.0810       1.3410
   3728.9231   1159.8988      51.9000       0.3208       0.3533       2.0670       1.3050
   3729.0757   1159.9253      46.7220       0.2965       0.3661       2.0460       1.3180
   3729.2280   1159.9519      45.8890       0.2911       0.3721       2.0360       1.2990
   3729.3804   1159.9784      46.0900       0.2868       0.3770       2.0280       1.2930
   3729.5327   1160.0049      46.0030       0.3038       0.3800       2.0230       1.3310
   3729.6853   1160.0314      43.3260       0.3166       0.3812       2.0210       1.2150
   3729.8376   1160.0579      42.3720       0.3160       0.3818       2.0200       1.1930
   3729.9900   1160.0844      42.9410       0.3067       0.3830       2.0180       1.0350
   3730.1423   1160.1108      43.1490       0.2978       0.3836       2.0170       1.0260
   3730.2947   1160.1373      43.1770       0.2860       0.3842       2.0160       0.9980
   3730.4473   1160.1639      43.4910       0.2812       0.3842       2.0160       0.9950
   3730.5996   1160.1904      44.5650       0.2723       0.3830       2.0180       1.0040
   3730.7520   1160.2169      43.8310       0.2743       0.3818       2.0200       1.0040
   3730.9043   1160.2434      43.1300       0.2768       0.3812       2.0210       0.9910
   3731.0569   1160.2699      43.0800       0.3049       0.3806       2.0220       0.9570
   3731.2092   1160.2964      42.9290       0.3042       0.3806       2.0220       0.9550
   3731.3616   1160.3230      42.6070       0.2958       0.3812       2.0210       0.9140
   3731.5139   1160.3495      42.4670       0.2907       0.3818       2.0200       0.8980
   3731.6665   1160.3760      42.1590       0.2667    -999.2500    -999.2500       0.8550
   3731.8188   1160.4025      41.5500       0.2679    -999.2500    -999.2500       0.8520
   3731.9712   1160.4290      40.4250       0.2746    -999.2500    -999.2500       0.8220
   3732.1235   1160.4554      40.0720       0.2941    -999.2500    -999.2500       0.8200
   3732.2759   1160.4819      41.7720       0.3088    -999.2500    -999.2500       0.8070
   3732.4285   1160.5084      43.5780       0.3079    -999.2500    -999.2500       0.8190
   3732.5808   1160.5349      48.0460       0.3210    -999.2500    -999.2500       0.8460
   3732.7332   1160.5614      50.8360       0.3349    -999.2500    -999.2500       0.8740
   3732.8855   1160.5879      57.5910       0.3539    -999.2500    -999.2500       0.9620
   3733.0381   1160.6145      58.6090       0.3606    -999.2500    -999.2500       0.9870
   3733.1904   1160.6410      62.2790       0.3387    -999.2500    -999.2500       1.1100
   3733.3428   1160.6675      62.9750       0.3293    -999.2500    -999.2500       1.1450
   3733.4951   1160.6940      64.0910    -999.2500    -999.2500    -999.2500       1.2010
   3733.6477   1160.7205      64.5700    -999.2500    -999.2500    -999.2500       1.2100
   3733.8000   1160.7469      66.6070    -999.2500    -999.2500    -999.2500       1.2410
   3733.9524   1160.7734      68.8660    -999.2500    -999.2500    -999.2500       1.2590
   3734.1047   1160.7999      69.5500    -999.2500    -999.2500    -999.2500       1.2650
   3734.2571   1160.8264      69.6810    -999.2500    -999.2500    -999.2500       1.2430
   3734.4097   1160.8529      69.6500    -999.2500    -999.2500    -999.2500       1.2410
   3734.5620   1160.8794      69.1300    -999.2500    -999.2500    -999.2500       1.2590
   3734.7144   1160.9059      68.6710    -999.2500    -999.2500    -999.2500       1.2530
   3734.8667   1160.9324      68.3110    -999.2500    -999.2500    -999.2500       1.2270
   3735.0193   1160.9589      67.9810    -999.2500    -999.2500    -999.2500       1.2250
   3735.1716   1160.9854      67.0050    -999.2500    -999.2500    -999.2500       1.2240
   3735.3240   1161.0118      66.1790    -999.2500    -999.2500    -999.2500       1.2160
   3735.4763   1161.0383      64.5290    -999.2500    -999.2500    -999.2500       1.1820
