#------------------------------------------------------------------------------
#
#   Created by  : [OpenWorks] Log Export Utility (LEXP)
#   Created on  : 2002-04-08 13:44:35
#   Project     : AREA_58_60_21DEC
#   User        : G15173
#   Interpreter : RONHO
#
#------------------------------------------------------------------------------
~VERSION INFORMATION
VERS. 2.0 : CWLS Log ASCII Standard - version 2.0
WRAP.  NO : One line per depth step
~WELL INFORMATION
#MNEMONIC   .UNIT                                           VALUE :DESCRIPTION
#------------------------------------------------------------------------------
STRT        .M                                           575.3100 :START DEPTH
STOP        .M                                          3739.8960 :STOP DEPTH
STEP        .M                                             0.1524 :STEP
NULL        .                                           -999.2500 :NULL VALUE
COMP        .                                             UNKNOWN :COMPANY
WELL        .                                           15/9-A-16 :WELL
FLD         .                                            SLEIPNER :FIELD
LOC         .                                             UNKNOWN :LOCATION
CNTY        .                                             UNKNOWN :COUNTY
STAT        .                                             UNKNOWN :STATE
CTRY        .                                              Norway :COUNTRY
SRVC        .                                             UNKNOWN :SERVICE COMPANY
DATE        .                                             UNKNOWN :LOG DATE
UWI         .                                        NO 15/9-A-16 :UNIQUE WELL ID
XCOORD      .                                       436137.417107 :SURFACE X
YCOORD      .                                      6470282.857379 :SURFACE Y
LAT         .                                           58.367417 :LATITUDE
LON         .                                            1.908404 :LONGITUDE
ELEV        .M                                            78.0000 :SURFACE ELEV
ELEV_TYPE   .                                                  KB :ELEV TYPE
~CURVE INFORMATION
#MNEMONIC.UNIT        API CODE       : CURVE DESCRIPTION
#------------------------------------------------------------------------------
DEPTH    .M                          : Measured Depth
TVD      .M                          : True Vertical Depth (TVD)
GR       .API                        : GR:SFINX:rC:NONE:v1 
NPHI     .v/v_decimal                : NPHI:SFINX:rC:NONE:v1 
PHIF     .v/v_decimal                : PHIF:SFINX:rC:NONE:v1 
RHOB     .g/cm3                      : RHOB:SFINX:rC:NONE:v1 
RT       .ohm.m                      : RT:SFINX:rC:NONE:v1 
~A     DEPTH         TVD           GR         NPHI         PHIF         RHOB           RT
# ...
   1673.9615    896.8483      98.6430       0.4343    -999.2500       2.2010       2.7380
   1674.1140    896.8694      98.8490       0.4331    -999.2500       2.2010       2.7320
   1674.2664    896.8906      99.2610       0.4306    -999.2500       2.2020       2.7200
   1674.4188    896.9117      99.4670       0.4293    -999.2500       2.2020       2.7190
   1674.5712    896.9329      99.8800       0.4268    -999.2500       2.1710       2.7380
   1674.7236    896.9540      99.9290       0.4255    -999.2500       2.1670       2.7470
   1674.8760    896.9754     100.6580       0.4255    -999.2500       2.1560       2.7660
   1675.0284    896.9968     101.0220       0.4424    -999.2500       2.1540       2.7760
   1675.1808    897.0182     101.7510       0.4762    -999.2500       2.1910       2.7930
   1675.3333    897.0397     101.8720       0.4930    -999.2500       2.1970       2.8100
   1675.4856    897.0611     100.8190       0.5082    -999.2500       2.2220       2.8430
   1675.6379    897.0825      99.7650       0.5082    -999.2500       2.2230       2.8590
   1675.7904    897.1039      97.6570       0.5082    -999.2500       2.2210       2.8870
   1675.9427    897.1254      96.6030       0.5082    -999.2500       2.2200       2.8970
   1676.0952    897.1469      98.6010       0.4715    -999.2500       2.2170       2.9160
   1676.2476    897.1682     100.8000       0.4531    -999.2500       2.2160       2.9260
   1676.4000    897.1897     105.1970       0.4200    -999.2500       2.2110       2.9450
   1676.5524    897.2111     106.3480       0.4202    -999.2500       2.2020       2.8880
   1676.7048    897.2325     106.3480       0.4203    -999.2500       2.1980       2.8260
   1676.8572    897.2540     106.3480       0.4205    -999.2500       2.1730       2.8170
   1677.0096    897.2754     104.8010       0.4206    -999.2500       2.1510       2.7950
   1677.1620    897.2968     101.7060       0.4208    -999.2500       2.1200       2.7640
   1677.3145    897.3182     100.1590       0.4210    -999.2500       2.0990       2.7760
   1677.4668    897.3397      97.0650       0.4212    -999.2500       2.0620       2.8010
   1677.6191    897.3611      95.5890       0.4212    -999.2500       2.0430       2.8130
   1677.7716    897.3825      94.4230       0.4267    -999.2500       2.0160       2.8370
   1677.9240    897.4039      93.8400       0.4294    -999.2500       1.9840       2.8490
   1678.0764    897.4254      92.6740       0.4349    -999.2500       1.9340       2.7550
   1678.2288    897.4468      92.0920       0.4377    -999.2500       1.8850       2.7550
   1678.3812    897.4682      93.1410       0.4432    -999.2500       1.8300       2.7560
   1678.5336    897.4896      94.2200       0.4459    -999.2500       1.8150       2.7570
   1678.6860    897.5111      96.3780       0.4566    -999.2500       1.7960       2.7580
   1678.8384    897.5325      97.4570       0.4669    -999.2500       1.7900       2.7530
   1678.9908    897.5540      98.2560       0.4876    -999.2500       1.7860       2.7450
   1679.1432    897.5754      98.0750       0.4979    -999.2500       1.7840       2.7400
   1679.2957    897.5968      97.7140       0.5082    -999.2500       1.7790       2.7310
   1679.4480    897.6182      97.5330       0.5562    -999.2500       1.7780       2.7290
   1679.6003    897.6396      97.3520       0.6521    -999.2500       1.7770       2.7260
   1679.7528    897.6611      98.9250       0.6266    -999.2500       1.7740       2.7220
   1679.9052    897.6827      99.7110       0.5771    -999.2500       1.7740       2.7210
   1680.0576    897.7044     101.2850       0.4782    -999.2500       1.7790       2.7050
   1680.2100    897.7260     101.9630       0.4337    -999.2500       1.7830       2.6910
   1680.3624    897.7477     101.0750       0.4164    -999.2500       1.8150       2.6620
   1680.5148    897.7693     100.6320       0.3991    -999.2500       1.8170       2.6480
   1680.6672    897.7910      99.7440       0.3645    -999.2500       1.8450       2.6280
   1680.8196    897.8127      99.6570       0.3611    -999.2500       1.8580       2.6280
   1680.9720    897.8344     100.7770       0.3585    -999.2500       1.9360       2.6280
   1681.1244    897.8560     101.3380       0.3573    -999.2500       1.9750       2.6280
   1681.2769    897.8776     102.4580       0.3562    -999.2500       2.0280       2.6280
   1681.4292    897.8993     103.0180       0.3562    -999.2500       2.0510       2.6290
   1681.5815    897.9210     103.2110       0.3562    -999.2500       2.0870       2.6320
   1681.7340    897.9426     103.3750       0.3562    -999.2500       2.1500       2.6330
   1681.8864    897.9642     103.7020       0.3657    -999.2500       2.2290       2.6360
   1682.0388    897.9859     103.8660       0.3751    -999.2500       2.2380       2.6370
   1682.1912    898.0076     103.2850       0.3836    -999.2500       2.2190       2.6400
   1682.3436    898.0292     102.6810       0.3836    -999.2500       2.2130       2.6410
   1682.4960    898.0509     103.2870       0.4059    -999.2500       2.2070       2.6450
   1682.6484    898.0726     103.2870       0.4171    -999.2500       2.2020       2.6460
   1682.8008    898.0942     100.8950       0.4372    -999.2500       2.1980       2.6620
   1682.9532    898.1158      98.5030       0.4372    -999.2500       2.1850       2.6790
   1683.1056    898.1375      98.4370       0.4521    -999.2500       2.1790       2.6870
   1683.2581    898.1592      95.9650       0.4558    -999.2500       2.1720       2.7030
   1683.4104    898.1808      94.7300       0.4856    -999.2500       2.1710       2.7150
   1683.5627    898.2025      93.0120       0.5288    -999.2500       2.1690       2.7380
   1683.7152    898.2241      94.0450       0.5540    -999.2500       2.1690       2.7500
   1683.8676    898.2458      96.1130       0.5681    -999.2500       2.1780       2.9140
   1684.0200    898.2675      97.1460       0.5645    -999.2500       2.1780       2.8660
   1684.1724    898.2891      97.7870       0.5942    -999.2500       2.1880       2.6270
   1684.3248    898.3108      97.6800       0.6264    -999.2500       2.1890       2.5440
   1684.4772    898.3324      97.4650       0.6909    -999.2500       2.1940       2.5440
   1684.6296    898.3541      97.3580       0.7005    -999.2500       2.1980       2.5440
   1684.7820    898.3757      97.0990       0.6842    -999.2500       2.1990       2.5440
   1684.9344    898.3976      96.8470       0.6621    -999.2500       2.1990       2.5460
   1685.0868    898.4195      96.3430       0.6173    -999.2500       2.2190       2.5490
   1685.2393    898.4414      96.0910       0.5924    -999.2500       2.2230       2.5510
   1685.3916    898.4633      98.0420       0.5437    -999.2500       2.2280       2.5630
   1685.5439    898.4852     100.2250       0.5174    -999.2500       2.2280       2.5720
   1685.6964    898.5070     104.5890       0.5047    -999.2500       2.2260       2.5920
   1685.8488    898.5289     106.7720       0.4972    -999.2500       2.2250       2.5960
   1686.0012    898.5508     110.6430       0.4821    -999.2500       2.2260       2.6120
   1686.1536    898.5727     108.1170       0.4784    -999.2500       2.2320       2.6280
   1686.3060    898.5946     106.8540       0.4881    -999.2500       2.2470       2.6360
   1686.4584    898.6165     104.3290       0.5077    -999.2500       2.2510       2.6480
   1686.6108    898.6384     103.0660       0.5086    -999.2500       2.2510       2.6550
   1686.7632    898.6602     102.7450       0.5786    -999.2500       2.2450       2.6700
   1686.9156    898.6821     103.1840       0.5786    -999.2500       2.2410       2.6770
   1687.0680    898.7040     103.0700       0.5786    -999.2500       2.2300       2.6870
   1687.2203    898.7259     102.3700       0.6365    -999.2500       2.2230       2.6950
   1687.3728    898.7478     102.6140       0.7232    -999.2500       2.2140       2.7110
