#------------------------------------------------------------------------------
#
#   Created by  : [OpenWorks] Log Export Utility (LEXP)
#   Created on  : 2002-04-08 13:44:35
#   Project     : AREA_58_60_21DEC
#   User        : G15173
#   Interpreter : RONHO
#
#------------------------------------------------------------------------------
~VERSION INFORMATION
VERS. 2.0 : CWLS Log ASCII Standard - version 2.0
WRAP.  NO : One line per depth step
~WELL INFORMATION
#MNEMONIC   .UNIT                                           VALUE :DESCRIPTION
#------------------------------------------------------------------------------
STRT        .M                                           575.3100 :START DEPTH
STOP        .M                                          3739.8960 :STOP DEPTH
STEP        .M                                             0.1524 :STEP
NULL        .                                           -999.2500 :NULL VALUE
COMP        .                                             UNKNOWN :COMPANY
WELL        .                                           15/9-A-16 :WELL
FLD         .                                            SLEIPNER :FIELD
LOC         .                                             UNKNOWN :LOCATION
CNTY        .                                             UNKNOWN :COUNTY
STAT        .                                             UNKNOWN :STATE
CTRY        .                                              Norway :COUNTRY
SRVC        .                                             UNKNOWN :SERVICE COMPANY
DATE        .                                             UNKNOWN :LOG DATE
UWI         .                                        NO 15/9-A-16 :UNIQUE WELL ID
XCOORD      .                                       436137.417107 :SURFACE X
YCOORD      .                                      6470282.857379 :SURFACE Y
LAT         .                                           58.367417 :LATITUDE
LON         .                                            1.908404 :LONGITUDE
ELEV        .M                                            78.0000 :SURFACE ELEV
ELEV_TYPE   .                                                  KB :ELEV TYPE
~CURVE INFORMATION
#MNEMONIC.UNIT        API CODE       : CURVE DESCRIPTION
#------------------------------------------------------------------------------
DEPTH    .M                          : Measured Depth
TVD      .M                          : True Vertical Depth (TVD)
GR       .API                        : GR:SFINX:rC:NONE:v1 
NPHI     .v/v_decimal                : NPHI:SFINX:rC:NONE:v1 
PHIF     .v/v_decimal                : PHIF:SFINX:rC:NONE:v1 
RHOB     .g/cm3                      : RHOB:SFINX:rC:NONE:v1 
RT       .ohm.m                      : RT:SFINX:rC:NONE:v1 
~A     DEPTH         TVD           GR         NPHI         PHIF         RHOB           RT
# ...
   1050.0360    815.6345      90.7060       0.4884    -999.2500       2.1610       2.7450
   1050.1884    815.6628      98.9160       0.4881    -999.2500       2.1600       2.7800
   1050.3408    815.6912     103.0210       0.4546    -999.2500       2.1590       2.7870
   1050.4932    815.7197     104.5870       0.4138    -999.2500       2.1580       2.8220
   1050.6456    815.7480     102.3290       0.4041    -999.2500       2.1550       2.8400
   1050.7980    815.7764      97.8120       0.3873    -999.2500       2.1480       2.8800
   1050.9504    815.8049      99.2360       0.4186    -999.2500       2.1410       2.9260
   1051.1028    815.8333     101.7980       0.4498    -999.2500       2.1410       2.9490
   1051.2552    815.8608     106.9220       0.4908    -999.2500       2.1540       2.9720
   1051.4076    815.8884     107.1170       0.5312    -999.2500       2.1610       2.9830
   1051.5601    815.9160     108.3810       0.5861    -999.2500       2.1640       3.0040
   1051.7124    815.9435     109.0130       0.5861    -999.2500       2.1640       3.0050
   1051.8647    815.9711     109.9040       0.5372    -999.2500       2.1620       3.0510
   1052.0172    815.9987     110.3860       0.5128    -999.2500       2.1600       3.0740
   1052.1696    816.0262     111.3510       0.4639    -999.2500       2.1660       3.1070
   1052.3220    816.0538     111.4570       0.4399    -999.2500       2.1690       3.1240
   1052.4744    816.0814     107.1680       0.4399    -999.2500       2.1750       3.1590
   1052.6268    816.1089     105.0230       0.4399    -999.2500       2.1760       3.1770
   1052.7792    816.1365     101.6920       0.4309    -999.2500       2.1750       3.1940
   1052.9316    816.1641     105.5700       0.4219    -999.2500       2.1740       3.2110
   1053.0840    816.1916     113.3270       0.4040    -999.2500       2.1730       3.2380
   1053.2365    816.2192     117.2060       0.4007    -999.2500       2.1730       3.2320
   1053.3888    816.2468     117.0140       0.4007    -999.2500       2.1710       3.2200
   1053.5411    816.2743     116.3330       0.4126    -999.2500       2.1710       3.2140
   1053.6936    816.3019     116.2140       0.4362    -999.2500       2.1700       3.2100
   1053.8459    816.3294     116.7320       0.4481    -999.2500       2.1700       3.2070
   1053.9984    816.3570     115.6110       0.4597    -999.2500       2.1690       3.2010
   1054.1508    816.3846     113.7970       0.4597    -999.2500       2.1690       3.1260
   1054.3032    816.4122     112.6110       0.4597    -999.2500       2.1680       3.0880
   1054.4556    816.4397     110.2390       0.4597    -999.2500       2.1670       3.0390
   1054.6080    816.4673     109.0530       0.4597    -999.2500       2.1660       3.0190
   1054.7604    816.4948     107.9300       0.4509    -999.2500       2.1650       2.9790
   1054.9128    816.5224     107.5220       0.4470    -999.2500       2.1640       2.9620
   1055.0652    816.5500     106.7070       0.4245    -999.2500       2.1600       2.9470
   1055.2177    816.5775     106.2990       0.4133    -999.2500       2.1560       2.9400
   1055.3700    816.6051     105.4840       0.3969    -999.2500       2.1480       2.9300
   1055.5223    816.6326     105.0820       0.3969    -999.2500       2.1440       2.8600
   1055.6748    816.6602     101.9290       0.3881    -999.2500       2.1360       2.9620
   1055.8271    816.6878     100.3520       0.3837    -999.2500       2.1350       2.9300
   1055.9796    816.7154      97.1990       0.3750    -999.2500       2.1340       2.8660
   1056.1320    816.7429      95.6220       0.3706    -999.2500       2.1340       2.8340
   1056.2844    816.7700      92.4690       0.3775    -999.2500       2.1340       2.7710
   1056.4368    816.7970      90.8920       0.3847    -999.2500       2.1340       2.7390
   1056.5892    816.8240      89.5580       0.3992    -999.2500       2.1340       2.7070
   1056.7416    816.8510      89.6300       0.4065    -999.2500       2.1340       2.7050
   1056.8940    816.8781      89.7740       0.4188    -999.2500       2.1340       2.6990
   1057.0464    816.9051      89.8460       0.4188    -999.2500       2.1340       2.6960
   1057.1989    816.9321      89.9910       0.4433    -999.2500       2.1340       2.6900
   1057.3512    816.9592      93.0220       0.4677    -999.2500       2.1340       2.6850
   1057.5035    816.9861      96.0170       0.4799    -999.2500       2.1330       2.6820
   1057.6560    817.0132     102.0050       0.5043    -999.2500       2.1320       2.6840
   1057.8083    817.0402     104.5400       0.5054    -999.2500       2.1320       2.6850
   1057.9608    817.0673     104.1290       0.5294    -999.2500       2.1310       2.6870
   1058.1132    817.0943     103.9230       0.5414    -999.2500       2.1300       2.6880
   1058.2656    817.1213     103.5130       0.5655    -999.2500       2.1200       2.6910
   1058.4180    817.1483     103.3190       0.5775    -999.2500       2.1160       2.6920
   1058.5704    817.1754     105.7630       0.5860    -999.2500       2.1080       2.6790
   1058.7228    817.2024     106.9850       0.5571    -999.2500       2.1040       2.6730
   1058.8752    817.2294     109.4290       0.4995    -999.2500       2.0960       2.6610
   1059.0276    817.2564     110.6510       0.4706    -999.2500       2.0950       2.6550
   1059.1801    817.2834     113.0950       0.4129    -999.2500       2.0930       2.6740
   1059.3324    817.3105     113.4910       0.4036    -999.2500       2.0920       2.6930
   1059.4847    817.3375     111.4990       0.4217    -999.2500       2.0900       2.7320
   1059.6372    817.3646     110.5030       0.4399    -999.2500       2.0890       2.7390
   1059.7896    817.3915     108.5100       0.4762    -999.2500       2.0870       2.7750
   1059.9420    817.4186     107.5140       0.4943    -999.2500       2.0850       2.7940
   1060.0944    817.4456     107.1610       0.5253    -999.2500       2.0810       2.8310
   1060.2468    817.4727     107.7470       0.5253    -999.2500       2.0790       2.8490
   1060.3992    817.4997     108.9200       0.5078    -999.2500       2.0750       2.8730
   1060.5516    817.5267     110.0930       0.4904    -999.2500       2.0730       2.8840
   1060.7040    817.5537     110.6790       0.4817    -999.2500       2.0760       2.8890
   1060.8564    817.5807     111.4570       0.4701    -999.2500       2.0830       2.9000
   1061.0088    817.6078     110.4010       0.4701    -999.2500       2.0860       2.9050
   1061.1613    817.6348     108.2890       0.4589    -999.2500       2.0920       2.9690
   1061.3136    817.6609     107.2330       0.4534    -999.2500       2.0950       3.0290
   1061.4659    817.6870     105.1220       0.4422    -999.2500       2.1060       3.1500
   1061.6184    817.7131     104.0660       0.4366    -999.2500       2.1120       3.2100
   1061.7708    817.7391     103.1340       0.4327    -999.2500       2.1220       3.3310
   1061.9232    817.7652     102.9490       0.4314    -999.2500       2.1280       3.3910
   1062.0756    817.7913     102.5790       0.4288    -999.2500       2.1360       3.4430
   1062.2280    817.8174     102.3940       0.4275    -999.2500       2.1350       3.4700
   1062.3804    817.8434     102.0240       0.4248    -999.2500       2.1330       3.5230
   1062.5328    817.8695     101.9630       0.4244    -999.2500       2.1310       3.5490
   1062.6852    817.8956     100.7140       0.4296    -999.2500       2.1290       3.6020
   1062.8376    817.9217     100.0890       0.4349    -999.2500       2.1280       3.6120
   1062.9900    817.9478      98.8400       0.4453    -999.2500       2.1280       3.6120
   1063.1425    817.9738      98.2150       0.4505    -999.2500       2.1280       3.6120
   1063.2948    817.9999      98.8760       0.4594    -999.2500       2.1280       3.6120
   1063.4471    818.0259     100.1300       0.4519    -999.2500       2.1280       3.6120
