#------------------------------------------------------------------------------
#
#   Created by  : [OpenWorks] Log Export Utility (LEXP)
#   Created on  : 2011-12-19 12:32:06
#   Project     : AREA_58_60_21DEC
#   User        : AKAFU
#   Interpreter : AKAFU
#
#------------------------------------------------------------------------------
~VERSION INFORMATION
VERS. 2.0 : CWLS Log ASCII Standard - version 2.0
WRAP.  NO : One line per depth step
~WELL INFORMATION
#MNEMONIC   .UNIT                                           VALUE :DESCRIPTION
#------------------------------------------------------------------------------
STRT        .M                                             0.0000 :START DEPTH
STOP        .M                                          1999.9452 :STOP DEPTH
STEP        .M                                             0.1524 :STEP
NULL        .                                           -999.2500 :NULL VALUE
COMP        .                                             UNKNOWN :COMPANY
WELL        .                                          NO 15/9-13 :WELL
FLD         .                                            SLEIPNER :FIELD
LOC         .                                             UNKNOWN :LOCATION
CNTY        .                                             UNKNOWN :COUNTY
STAT        .                                             UNKNOWN :STATE
CTRY        .                                              Norway :COUNTRY
SRVC        .                                             UNKNOWN :SERVICE COMPANY
DATE        .                                             UNKNOWN :LOG DATE
UWI         .                                          NO 15/9-13 :UNIQUE WELL ID
XCOORD      .                                       437653.695349 :SURFACE X
YCOORD      .                                      6470978.020701 :SURFACE Y
LAT         .                                           58.373878 :LATITUDE
LON         .                                            1.934128 :LONGITUDE
ELEV        .M                                            25.0000 :SURFACE ELEV
ELEV_TYPE   .                                                  KB :ELEV TYPE
~CURVE INFORMATION
#MNEMONIC.UNIT        API CODE       : CURVE DESCRIPTION
#------------------------------------------------------------------------------
DEPTH    .M                          : Measured Depth
CALI     .inches                     : CALI:SFINX:rC:NONE:v1 
DT-CKS   .us/ft                      : DT-CKS:SFINX:rC:NONE:v1 
DT       .us/ft                      : DT:SFINX:rC:NONE:v1 
GR       .API                        : GR:SFINX:rC:NONE:v1 
NPHI     .v/v_decimal                : NPHI:SFINX:rC:NONE:v1 
PHIF     .v/v_decimal                : PHIF:SFINX:rC:NONE:v1 
RFT      .bar         UNKNOWN        : RFT:SFINX:rC:NONE:v1 
RHOB     .g/cm3                      : RHOB:SFINX:rC:NONE:v1 
RT       .ohm.m                      : RT:SFINX:rC:NONE:v1 
SAND     .unitless                   : SAND:SFINX:rC:NONE:v1 
SP       .mV                         : SP:SFINX:rC:NONE:v1 
SW       .v/v_decimal                : SW:SFINX:rC:NONE:v1 
VSH      .v/v_decimal                : VSH:SFINX:rC:NONE:v1 
~A     DEPTH         CALI       DT-CKS           DT           GR         NPHI         PHIF          RFT         RHOB           RT         SAND           SP           SW          VSH
# ...
   1307.5920      15.3520     138.9256     144.7500      95.6880       0.4639    -999.2500    -999.2500       1.9756    -999.2500    -999.2500     133.3700    -999.2500    -999.2500
   1307.7444      15.3440     136.9830     142.0000      92.5000       0.4985    -999.2500    -999.2500       1.9736    -999.2500    -999.2500     133.7500    -999.2500    -999.2500
   1307.8969      15.4840     134.6955     140.7500      94.6880       0.4961    -999.2500    -999.2500       1.9795    -999.2500    -999.2500     132.6200    -999.2500    -999.2500
   1308.0492      15.4920     133.5534     137.5000     101.2500       0.4858    -999.2500    -999.2500       1.9893    -999.2500    -999.2500     132.8700    -999.2500    -999.2500
   1308.2017      15.3280     135.5285     138.5000     105.6300       0.4917    -999.2500    -999.2500       1.9980    -999.2500    -999.2500     132.6200    -999.2500    -999.2500
   1308.3540      15.2580     137.0797     142.7500     107.2500       0.4790    -999.2500    -999.2500       1.9941    -999.2500    -999.2500     132.6200    -999.2500    -999.2500
   1308.5063      15.2730     137.8273     141.3700     106.5600       0.4736    -999.2500    -999.2500       1.9844    -999.2500    -999.2500     133.2500    -999.2500    -999.2500
   1308.6588      15.4450     138.7808     143.7500     102.9400       0.4287    -999.2500    -999.2500       1.9805    -999.2500    -999.2500     133.6200    -999.2500    -999.2500
   1308.8112      15.2340     138.6814     143.7500      98.0000       0.4536    -999.2500    -999.2500       1.9805    -999.2500    -999.2500     135.8700    -999.2500    -999.2500
   1308.9636      15.2030     139.1612     143.0000      96.6250       0.4590    -999.2500    -999.2500       1.9824    -999.2500    -999.2500     135.6200    -999.2500    -999.2500
   1309.1160      15.4380     140.6846     145.0000      92.8750       0.4868    -999.2500    -999.2500       1.9795    -999.2500    -999.2500     133.8700    -999.2500    -999.2500
   1309.2684      15.3280     141.6496     146.3700      92.0630       0.5220    -999.2500    -999.2500       1.9775    -999.2500    -999.2500     133.1200    -999.2500    -999.2500
   1309.4208      15.4380     141.2466     146.7500      93.5000       0.5371    -999.2500    -999.2500       1.9844    -999.2500    -999.2500     132.7500    -999.2500    -999.2500
   1309.5732      15.0700     140.3331     145.1200      94.7500       0.5225    -999.2500    -999.2500       1.9912    -999.2500    -999.2500     133.1200    -999.2500    -999.2500
   1309.7256      15.0630     139.2843     144.7500      96.1880       0.5015    -999.2500    -999.2500       1.9951    -999.2500    -999.2500     132.7500    -999.2500    -999.2500
   1309.8781      15.0700     139.1151     143.1200      93.3750       0.4385    -999.2500    -999.2500       1.9902    -999.2500    -999.2500     133.8700    -999.2500    -999.2500
   1310.0304      14.8830     139.9470     144.5000      94.6880       0.4448    -999.2500    -999.2500       1.9785    -999.2500    -999.2500     133.2500    -999.2500    -999.2500
   1310.1827      15.0000     140.3822     145.3700      96.5000       0.4492    -999.2500    -999.2500       1.9717    -999.2500    -999.2500     132.6200    -999.2500    -999.2500
   1310.3352      15.2030     138.9935     145.1200      93.4380       0.5063    -999.2500    -999.2500       1.9639    -999.2500    -999.2500     129.6200    -999.2500    -999.2500
   1310.4875      15.2810     135.4267     142.1200      92.5630       0.5273    -999.2500    -999.2500       1.9668    -999.2500    -999.2500     132.0000    -999.2500    -999.2500
   1310.6400      15.1800     124.7940     138.0000      89.5000       0.5381    -999.2500    -999.2500       1.9756    -999.2500    -999.2500     132.5000    -999.2500    -999.2500
   1310.7924      15.1880     105.4377     117.5600      86.3750       0.5278    -999.2500    -999.2500       1.9941    -999.2500    -999.2500     132.0000    -999.2500    -999.2500
   1310.9448      15.2030      94.2749      96.7500      77.2500       0.5151    -999.2500    -999.2500       2.0059    -999.2500    -999.2500     133.0000    -999.2500    -999.2500
   1311.0972      15.2500      95.9592      98.1880      66.8130       0.4805    -999.2500    -999.2500       2.0801    -999.2500    -999.2500     132.3700    -999.2500    -999.2500
   1311.2496      15.6410     107.9791     103.7500      59.0630       0.3813    -999.2500    -999.2500       2.2051    -999.2500    -999.2500     132.1200    -999.2500    -999.2500
   1311.4020      15.2340     127.5802     127.5600      62.7500       0.3208    -999.2500    -999.2500       2.3242    -999.2500    -999.2500     132.6200    -999.2500    -999.2500
   1311.5544      15.2500     140.0826     146.1200      72.2500       0.3013    -999.2500    -999.2500       2.2285    -999.2500    -999.2500     132.3700    -999.2500    -999.2500
   1311.7068      15.2270     142.5104     147.5000      83.1880       0.3604    -999.2500    -999.2500       2.0781    -999.2500    -999.2500     132.6200    -999.2500    -999.2500
   1311.8593      15.1640     142.4634     147.5000      80.9380       0.4141    -999.2500    -999.2500       1.9766    -999.2500    -999.2500     132.3700    -999.2500    -999.2500
   1312.0116      15.1090     141.4012     147.1200      75.8130       0.4683    -999.2500    -999.2500       1.9453    -999.2500    -999.2500     133.7500    -999.2500    -999.2500
   1312.1639      15.3200     139.9253     145.0000      72.7500       0.4956    -999.2500    -999.2500       1.9326    -999.2500    -999.2500     134.8700    -999.2500    -999.2500
   1312.3164      15.2730     140.0722     144.1200      75.1880       0.4771    -999.2500    -999.2500       1.9355    -999.2500    -999.2500     134.6200    -999.2500    -999.2500
   1312.4688      15.3520     143.0413     145.7500      75.7500       0.4614    -999.2500    -999.2500       1.9355    -999.2500    -999.2500     133.3700    -999.2500    -999.2500
   1312.6212      15.4920     146.2744     151.5000      75.0000       0.4477    -999.2500    -999.2500       1.9414    -999.2500    -999.2500     133.0000    -999.2500    -999.2500
   1312.7736      15.3520     147.6780     152.1200      79.3750       0.5747    -999.2500    -999.2500       1.9414    -999.2500    -999.2500     134.8700    -999.2500    -999.2500
   1312.9260      15.5080     147.0352     153.3700      80.4380       0.5415    -999.2500    -999.2500       1.9277    -999.2500    -999.2500     134.1200    -999.2500    -999.2500
   1313.0784      15.2340     143.9871     150.5000      82.0000       0.5713    -999.2500    -999.2500       1.9141    -999.2500    -999.2500     133.8700    -999.2500    -999.2500
   1313.2308      15.4450     141.7294     146.3700      81.3130       0.4834    -999.2500    -999.2500       1.8955    -999.2500    -999.2500     132.7500    -999.2500    -999.2500
   1313.3832      15.1880     141.7273     146.1200      81.6250       0.5518    -999.2500    -999.2500       1.8965    -999.2500    -999.2500     131.6200    -999.2500    -999.2500
   1313.5356      15.3670     143.0395     147.3700      78.5630       0.5562    -999.2500    -999.2500       1.8955    -999.2500    -999.2500     131.2500    -999.2500    -999.2500
   1313.6880      15.3750     144.8159     149.0000      71.4380       0.6079    -999.2500    -999.2500       1.8965    -999.2500    -999.2500     129.2500    -999.2500    -999.2500
   1313.8405      15.3750     145.5858     151.0000      67.2500       0.5454    -999.2500    -999.2500       1.8936    -999.2500    -999.2500     132.6200    -999.2500    -999.2500
   1313.9928      15.4920     146.2896     150.3700      76.4380       0.5581    -999.2500    -999.2500       1.8926    -999.2500    -999.2500     132.7500    -999.2500    -999.2500
   1314.1451      15.4920     146.0616     152.3700      83.5630       0.4907    -999.2500    -999.2500       1.9023    -999.2500    -999.2500     132.3700    -999.2500    -999.2500
