#------------------------------------------------------------------------------
#
#   Created by  : [OpenWorks] Log Export Utility (LEXP)
#   Created on  : 2002-04-08 13:44:35
#   Project     : AREA_58_60_21DEC
#   User        : G15173
#   Interpreter : RONHO
#
#------------------------------------------------------------------------------
~VERSION INFORMATION
VERS. 2.0 : CWLS Log ASCII Standard - version 2.0
WRAP.  NO : One line per depth step
~WELL INFORMATION
#MNEMONIC   .UNIT                                           VALUE :DESCRIPTION
#------------------------------------------------------------------------------
STRT        .M                                           575.3100 :START DEPTH
STOP        .M                                          3739.8960 :STOP DEPTH
STEP        .M                                             0.1524 :STEP
NULL        .                                           -999.2500 :NULL VALUE
COMP        .                                             UNKNOWN :COMPANY
WELL        .                                           15/9-A-16 :WELL
FLD         .                                            SLEIPNER :FIELD
LOC         .                                             UNKNOWN :LOCATION
CNTY        .                                             UNKNOWN :COUNTY
STAT        .                                             UNKNOWN :STATE
CTRY        .                                              Norway :COUNTRY
SRVC        .                                             UNKNOWN :SERVICE COMPANY
DATE        .                                             UNKNOWN :LOG DATE
UWI         .                                        NO 15/9-A-16 :UNIQUE WELL ID
XCOORD      .                                       436137.417107 :SURFACE X
YCOORD      .                                      6470282.857379 :SURFACE Y
LAT         .                                           58.367417 :LATITUDE
LON         .                                            1.908404 :LONGITUDE
ELEV        .M                                            78.0000 :SURFACE ELEV
ELEV_TYPE   .                                                  KB :ELEV TYPE
~CURVE INFORMATION
#MNEMONIC.UNIT        API CODE       : CURVE DESCRIPTION
#------------------------------------------------------------------------------
DEPTH    .M                          : Measured Depth
TVD      .M                          : True Vertical Depth (TVD)
GR       .API                        : GR:SFINX:rC:NONE:v1 
NPHI     .v/v_decimal                : NPHI:SFINX:rC:NONE:v1 
PHIF     .v/v_decimal                : PHIF:SFINX:rC:NONE:v1 
RHOB     .g/cm3                      : RHOB:SFINX:rC:NONE:v1 
RT       .ohm.m                      : RT:SFINX:rC:NONE:v1 
~A     DEPTH         TVD           GR         NPHI         PHIF         RHOB           RT
# ...
   2080.8696    952.0863      46.1050       0.2945       0.4317       1.9400       0.8040
   2081.0220    952.1089      46.0680       0.2945       0.4333       1.9380       0.8020
   2081.1743    952.1316      45.6110       0.3210       0.4313       1.9350       0.8200
   2081.3269    952.1542      45.5320       0.3343       0.4293       1.9350       0.8230
   2081.4792    952.1769      45.0160       0.3549       0.4273       1.9350       0.8190
   2081.6316    952.1995      44.6630       0.3482       0.4186       1.9430       0.8110
   2081.7839    952.2222      44.8200       0.3348       0.4099       1.9540       0.7800
   2081.9363    952.2448      45.2720       0.3281       0.4012       1.9570       0.7910
   2082.0889    952.2675      46.0180       0.3212       0.3945       1.9630       0.8330
   2082.2412    952.2900      46.4100       0.3152       0.3879       1.9810       0.8360
   2082.3936    952.3126      47.1940       0.3142       0.3812       2.0130       0.8630
   2082.5459    952.3351      47.3740       0.3045       0.3745       2.0270       0.8710
   2082.6985    952.3577      48.8260       0.2853       0.3760       2.0330       0.8700
   2082.8508    952.3803      49.7470       0.2804       0.3774       2.0320       0.8610
   2083.0032    952.4028      48.4940       0.2804       0.3788       2.0280       0.8630
   2083.1555    952.4254      45.9880       0.2810       0.3782       2.0240       0.8670
   2083.3081    952.4480      44.9330       0.2813       0.3776       2.0240       0.8680
   2083.4604    952.4706      44.6180       0.2815       0.3770       2.0250       0.8680
   2083.6128    952.4932      44.4610       0.2815       0.3770       2.0270       0.8660
   2083.7651    952.5157      44.1460       0.2815       0.3770       2.0310       0.8630
   2083.9175    952.5383      44.1190       0.2815       0.3770       2.0310       0.8560
   2084.0701    952.5609      43.7930       0.2815       0.3770       2.0290       0.8440
   2084.2224    952.5834      43.6300       0.2815       0.3804       2.0280       0.8430
   2084.3748    952.6060      43.5710       0.2899       0.3838       2.0150       0.8430
   2084.5271    952.6285      43.6340       0.2983       0.3873       2.0130       0.8430
   2084.6797    952.6511      43.7600       0.3114       0.3907       2.0110       0.8470
   2084.8320    952.6737      43.7800       0.3114       0.3941       2.0100       0.8520
   2084.9844    952.6962      43.9770       0.2804       0.3976       2.0040       0.8610
   2085.1367    952.7188      44.0760       0.2495       0.3943       1.9970       0.8630
   2085.2893    952.7414      44.2740       0.2280       0.3911       1.9890       0.8510
   2085.4417    952.7640      44.3720       0.2342       0.3879       1.9880       0.8450
   2085.5940    952.7865      44.1710       0.2594       0.3852       1.9990       0.8480
   2085.7463    952.8091      43.9530       0.2683       0.3824       2.0040       0.8570
   2085.8987    952.8317      43.5160       0.2966       0.3797       2.0140       0.8760
   2086.0513    952.8542      43.2370       0.2972       0.3770       2.0220       0.8840
   2086.2036    952.8768      45.1800       0.2986       0.3737       2.0260       0.8870
   2086.3560    952.8994      49.0640       0.3055       0.3705       2.0310       0.8940
   2086.5083    952.9219      51.0060       0.3128       0.3673       2.0340       0.8940
   2086.6609    952.9445      51.3810       0.3212       0.3651       2.0390       0.8870
   2086.8132    952.9671      50.5740       0.3188       0.3628       2.0420       0.8830
   2086.9656    952.9896      48.9590       0.3140       0.3606       2.0530       0.8760
   2087.1179    953.0122      48.1510       0.3116       0.3598       2.0540       0.8720
   2087.2705    953.0347      46.9670       0.3069       0.3591       2.0560       0.8670
   2087.4229    953.0571      48.3200       0.3063       0.3583       2.0560       0.8640
   2087.5752    953.0795      51.0260       0.2931       0.3576       2.0590       0.8580
   2087.7275    953.1019      52.3790       0.2865       0.3584       2.0600       0.8550
   2087.8799    953.1244      54.4940       0.2734       0.3592       2.0600       0.8540
   2088.0325    953.1469      52.7830       0.2712       0.3600       2.0590       0.8560
   2088.1848    953.1693      49.3610       0.2692       0.3620       2.0560       0.8590
   2088.3372    953.1917      47.6500       0.2660       0.3640       2.0550       0.8610
   2088.4895    953.2141      44.2280       0.2648       0.3661       2.0520       0.8680
   2088.6421    953.2366      43.5090       0.2659       0.3655       2.0490       0.8730
   2088.7944    953.2590      40.7120       0.2724       0.3648       2.0420       0.8840
   2088.9468    953.2814      39.3140       0.2778       0.3642       2.0410       0.8890
   2089.0991    953.3038      36.8630       0.2888       0.3627       2.0480       0.8940
   2089.2517    953.3263      41.8050       0.2817       0.3612       2.0520       0.9020
   2089.4041    953.3488      44.2760       0.2718       0.3597       2.0530       0.9050
   2089.5564    953.3712      47.5510       0.2519       0.3582       2.0610       0.9120
   2089.7087    953.3936      47.0650       0.2510       0.3646       2.0660       0.9130
   2089.8611    953.4160      47.1610       0.2282       0.3711       2.0460       0.9100
   2090.0137    953.4385      47.1960       0.2321       0.3776       2.0340       0.9090
   2090.1660    953.4609      47.2670       0.2773       0.3729       2.0320       0.9060
   2090.3184    953.4833      47.1060       0.2801       0.3683       2.0380       0.9050
   2090.4707    953.5057      47.2600       0.2827       0.3636       2.0490       0.9010
   2090.6233    953.5282      47.5050       0.2840       0.3624       2.0500       0.8990
   2090.7756    953.5507      48.3750       0.2944       0.3612       2.0520       0.8950
   2090.9280    953.5731      48.8100       0.3047       0.3600       2.0530       0.8940
   2091.0803    953.5955      49.6800       0.3254       0.3611       2.0550       0.8390
   2091.2329    953.6180      50.1150       0.3288       0.3621       2.0560       0.8400
   2091.3853    953.6404      49.3270       0.3282       0.3632       2.0550       0.8910
   2091.5376    953.6628      48.4990       0.3184       0.3642       2.0530       0.8980
   2091.6899    953.6852      46.8440       0.2968       0.3634       2.0490       0.8950
   2091.8423    953.7077      46.0160       0.2978       0.3626       2.0480       0.9030
   2091.9949    953.7302      45.8540       0.3115       0.3618       2.0520       0.8820
   2092.1472    953.7526      45.8540       0.3093       0.3626       2.0530       0.8820
   2092.2996    953.7748      47.0060       0.2846       0.3634       2.0520       0.8830
   2092.4519    953.7971      47.7430       0.2674       0.3642       2.0510       0.8840
   2092.6045    953.8195      48.0410       0.2602       0.3635       2.0490       0.8840
   2092.7568    953.8417      50.2150       0.2646       0.3627       2.0500       0.8840
   2092.9092    953.8641      51.3020       0.2836       0.3620       2.0520       0.8840
   2093.0615    953.8864      52.7990       0.3106       0.3612       2.0550       0.8770
   2093.2141    953.9087      50.8930       0.3187       0.3608       2.0550       0.8700
   2093.3665    953.9310      47.0810       0.3349       0.3604       2.0550       0.8560
   2093.5188    953.9532      45.2720       0.3364       0.3600       2.0560       0.8490
   2093.6711    953.9755      47.7010       0.3067       0.3600       2.0560       0.8800
   2093.8235    953.9978      48.9150       0.2918       0.3600       2.0560       0.8550
   2093.9761    954.0201      50.7640       0.2789       0.3600       2.0570       0.8560
   2094.1284    954.0424      49.5640       0.2773       0.3675       2.0560       0.8560
   2094.2808    954.0647      47.1620       0.2741       0.3749       2.0360       0.8560
