#------------------------------------------------------------------------------
#
#   Created by  : [OpenWorks] Log Export Utility (LEXP)
#   Created on  : 2002-04-08 13:44:35
#   Project     : AREA_58_60_21DEC
#   User        : G15173
#   Interpreter : RONHO
#
#------------------------------------------------------------------------------
~VERSION INFORMATION
VERS. 2.0 : CWLS Log ASCII Standard - version 2.0
WRAP.  NO : One line per depth step
~WELL INFORMATION
#MNEMONIC   .UNIT                                           VALUE :DESCRIPTION
#------------------------------------------------------------------------------
STRT        .M                                           575.3100 :START DEPTH
STOP        .M                                          3739.8960 :STOP DEPTH
STEP        .M                                             0.1524 :STEP
NULL        .                                           -999.2500 :NULL VALUE
COMP        .                                             UNKNOWN :COMPANY
WELL        .                                           15/9-A-16 :WELL
FLD         .                                            SLEIPNER :FIELD
LOC         .                                             UNKNOWN :LOCATION
CNTY        .                                             UNKNOWN :COUNTY
STAT        .                                             UNKNOWN :STATE
CTRY        .                                              Norway :COUNTRY
SRVC        .                                             UNKNOWN :SERVICE COMPANY
DATE        .                                             UNKNOWN :LOG DATE
UWI         .                                        NO 15/9-A-16 :UNIQUE WELL ID
XCOORD      .                                       436137.417107 :SURFACE X
YCOORD      .                                      6470282.857379 :SURFACE Y
LAT         .                                           58.367417 :LATITUDE
LON         .                                            1.908404 :LONGITUDE
ELEV        .M                                            78.0000 :SURFACE ELEV
ELEV_TYPE   .                                                  KB :ELEV TYPE
~CURVE INFORMATION
#MNEMONIC.UNIT        API CODE       : CURVE DESCRIPTION
#------------------------------------------------------------------------------
DEPTH    .M                          : Measured Depth
TVD      .M                          : True Vertical Depth (TVD)
GR       .API                        : GR:SFINX:rC:NONE:v1 
NPHI     .v/v_decimal                : NPHI:SFINX:rC:NONE:v1 
PHIF     .v/v_decimal                : PHIF:SFINX:rC:NONE:v1 
RHOB     .g/cm3                      : RHOB:SFINX:rC:NONE:v1 
RT       .ohm.m                      : RT:SFINX:rC:NONE:v1 
~A     DEPTH         TVD           GR         NPHI         PHIF         RHOB           RT
# ...
   2487.7776   1011.3749      36.2530       0.3724       0.3855       2.0140       0.8380
   2487.9299   1011.3984      36.3250       0.3751       0.3855       2.0140       0.8380
   2488.0825   1011.4221      36.1830       0.4102       0.3867       2.0120       0.8550
   2488.2349   1011.4456      36.0770       0.4146       0.3867       2.0120       0.8580
   2488.3872   1011.4692      35.3920       0.4203       0.3782       2.0260       0.8620
   2488.5396   1011.4927      35.0600       0.3908       0.3758       2.0300       0.8830
   2488.6919   1011.5164      34.6400       0.3595       0.3745       2.0320       0.8880
   2488.8445   1011.5400      34.9460       0.3569       0.3745       2.0320       0.8860
   2488.9968   1011.5635      34.9770       0.3562       0.3758       2.0300       0.8650
   2489.1492   1011.5871      35.0380       0.3619       0.3758       2.0300       0.8620
   2489.3015   1011.6107      34.9320       0.3733       0.3776       2.0270       0.8550
   2489.4541   1011.6343      35.3410       0.3847       0.3752       2.0310       0.8550
   2489.6064   1011.6573      35.1250       0.3866       0.3745       2.0320       0.8650
   2489.7588   1011.6804      35.0760       0.3943       0.3715       2.0370       0.8730
   2489.9111   1011.7035      35.7330       0.3974       0.3697       2.0400       0.8670
   2490.0635   1011.7266      35.9410       0.3719       0.3648       2.0480       0.8700
   2490.2161   1011.7497      35.8530       0.3602       0.3612       2.0540       0.8760
   2490.3684   1011.7728      36.0200       0.3616       0.3600       2.0560       0.8860
   2490.5208   1011.7958      36.4810       0.3622       0.3648       2.0480       0.8840
   2490.6731   1011.8190      36.9390       0.3679       0.3685       2.0420       0.8550
   2490.8257   1011.8420      36.8130       0.3707       0.3697       2.0400       0.8470
   2490.9780   1011.8651      37.2840       0.3763       0.3715       2.0370       0.8720
   2491.1304   1011.8882      37.1840       0.3792       0.3709       2.0380       0.8900
   2491.2827   1011.9113      36.3090       0.3794       0.3697       2.0400       0.8720
   2491.4353   1011.9344      36.0240       0.3770       0.3691       2.0410       0.8790
   2491.5876   1011.9575      36.0660       0.3625       0.3685       2.0420       0.8970
   2491.7400   1011.9806      36.1540       0.3504       0.3685       2.0420       0.8940
   2491.8923   1012.0037      36.9090       0.3421       0.3703       2.0390       0.8720
   2492.0447   1012.0267      37.0270       0.3393       0.3703       2.0390       0.8650
   2492.1973   1012.0498      36.8160       0.3412       0.3715       2.0370       0.8620
   2492.3496   1012.0729      36.5770       0.3430       0.3715       2.0370       0.8690
   2492.5020   1012.0960      36.3810       0.3468       0.3727       2.0350       0.8720
   2492.6543   1012.1191      36.5590       0.3478       0.3745       2.0320       0.8720
   2492.8069   1012.1422      36.9890       0.3472       0.3739       2.0330       0.8670
   2492.9592   1012.1653      38.4250       0.3463       0.3739       2.0330       0.8620
   2493.1116   1012.1884      38.8360       0.3445       0.3733       2.0340       0.8700
   2493.2639   1012.2114      39.1120       0.3392       0.3697       2.0400       0.8760
   2493.4165   1012.2346      38.8510       0.3344       0.3679       2.0430       0.8720
   2493.5688   1012.2576      38.6140       0.3360       0.3655       2.0470       0.8650
   2493.7212   1012.2807      38.6530       0.3439       0.3655       2.0470       0.8690
   2493.8735   1012.3038      38.9930       0.3513       0.3691       2.0410       0.8620
   2494.0259   1012.3268      38.8620       0.3529       0.3703       2.0390       0.8580
   2494.1785   1012.3500      37.9250       0.3562       0.3745       2.0320       0.8550
   2494.3308   1012.3730      37.5590       0.3579       0.3770       2.0280       0.8560
   2494.4832   1012.3961      36.3930       0.3553       0.3818       2.0200       0.8660
   2494.6355   1012.4187      35.8160       0.3527       0.3830       2.0180       0.8430
   2494.7881   1012.4413      35.1610       0.3474       0.3842       2.0160       0.8380
   2494.9404   1012.4639      35.1410       0.3463       0.3848       2.0150       0.8440
   2495.0928   1012.4865      35.3120       0.3423       0.3848       2.0150       0.8550
   2495.2451   1012.5090      35.3710       0.3383       0.3842       2.0160       0.8620
   2495.3977   1012.5317      36.3860       0.3344       0.3752       2.0310       0.8520
   2495.5500   1012.5543      37.4880       0.3344       0.3703       2.0350       0.8540
   2495.7024   1012.5768      38.1640       0.3352       0.3673       2.0440       0.8730
   2495.8547   1012.5994      38.9960       0.3356       0.3642       2.0490       0.8830
   2496.0071   1012.6220      39.2030       0.3410       0.3636       2.0500       0.8860
   2496.1597   1012.6446      39.5230       0.3516       0.3624       2.0520       0.9140
   2496.3120   1012.6672      39.5620       0.3569       0.3618       2.0530       0.9150
   2496.4644   1012.6898      41.0900       0.3614       0.3667       2.0450       0.9570
   2496.6167   1012.7123      42.4830       0.3625       0.3685       2.0420       0.9700
   2496.7693   1012.7350      43.0970       0.3646       0.3667       2.0450       1.0120
   2496.9216   1012.7576      43.4990       0.3656       0.3630       2.0510       1.0660
   2497.0740   1012.7801      44.3580       0.3617       0.3624       2.0520       1.1360
   2497.2263   1012.8027      44.5970       0.3578       0.3624       2.0520       1.1680
   2497.3789   1012.8253      45.4360       0.3518       0.3624       2.0520       1.2740
   2497.5312   1012.8479      46.3020       0.3401       0.3606       2.0550       1.3990
   2497.6836   1012.8705      50.6430       0.3168       0.3570       2.0610       1.5360
   2497.8359   1012.8931      52.0520       0.3051       0.3552       2.0640       1.6430
   2497.9883   1012.9156      55.2340       0.2926       0.3527       2.0680       1.7950
   2498.1409   1012.9382      56.0980       0.2891       0.3515       2.0700       1.8510
   2498.2932   1012.9608      59.7760       0.2903       0.3418       2.0860       1.9110
   2498.4456   1012.9834      60.4230       0.2910       0.3394       2.0900       2.0150
   2498.5979   1013.0060      63.7910       0.3134       0.3291       2.1070       2.1710
   2498.7505   1013.0286      65.4220       0.3276       0.3121       2.1350       2.3850
   2498.9028   1013.0512      66.8750       0.3287       0.3121       2.1350       2.3580
   2499.0552   1013.0738      68.3360       0.3309       0.3048       2.1470       2.3040
   2499.2075   1013.0964      68.3890       0.3319       0.3042       2.1480       2.2670
   2499.3601   1013.1190      69.6620       0.3392       0.2982       2.1580       2.4010
   2499.5125   1013.1415      70.1850       0.3428       0.2952       2.1630       2.3930
   2499.6648   1013.1636      70.6530       0.3480       0.2879       2.1750       2.3930
   2499.8171   1013.1857      71.0520       0.3451       0.2867       2.1770       2.3660
   2499.9695   1013.2078      71.1370       0.3362       0.2782       2.1910       2.2590
   2500.1221   1013.2299      71.8500       0.3328       0.2739       2.1980       2.2190
   2500.2744   1013.2520      73.2270       0.3328       0.2673       2.2090       2.1920
   2500.4268   1013.2740      73.6760       0.3386       0.2642       2.2140       2.1950
   2500.5791   1013.2961      74.0400       0.3501       0.2570       2.2260       2.1820
   2500.7317   1013.3182      74.2450       0.3559       0.2558       2.2280       2.1570
   2500.8840   1013.3403      73.4570       0.3506       0.2558       2.2280       2.1200
   2501.0364   1013.3624      73.1640       0.3447       0.2558       2.2280       2.1050
   2501.1887   1013.3845      69.5760       0.3353       0.2558       2.2280       2.0690
