#------------------------------------------------------------------------------
#
#   Created by  : [OpenWorks] Log Export Utility (LEXP)
#   Created on  : 2002-04-08 13:44:35
#   Project     : AREA_58_60_21DEC
#   User        : G15173
#   Interpreter : RONHO
#
#------------------------------------------------------------------------------
~VERSION INFORMATION
VERS. 2.0 : CWLS Log ASCII Standard - version 2.0
WRAP.  NO : One line per depth step
~WELL INFORMATION
#MNEMONIC   .UNIT                                           VALUE :DESCRIPTION
#------------------------------------------------------------------------------
STRT        .M                                           575.3100 :START DEPTH
STOP        .M                                          3739.8960 :STOP DEPTH
STEP        .M                                             0.1524 :STEP
NULL        .                                           -999.2500 :NULL VALUE
COMP        .                                             UNKNOWN :COMPANY
WELL        .                                           15/9-A-16 :WELL
FLD         .                                            SLEIPNER :FIELD
LOC         .                                             UNKNOWN :LOCATION
CNTY        .                                             UNKNOWN :COUNTY
STAT        .                                             UNKNOWN :STATE
CTRY        .                                              Norway :COUNTRY
SRVC        .                                             UNKNOWN :SERVICE COMPANY
DATE        .                                             UNKNOWN :LOG DATE
UWI         .                                        NO 15/9-A-16 :UNIQUE WELL ID
XCOORD      .                                       436137.417107 :SURFACE X
YCOORD      .                                      6470282.857379 :SURFACE Y
LAT         .                                           58.367417 :LATITUDE
LON         .                                            1.908404 :LONGITUDE
ELEV        .M                                            78.0000 :SURFACE ELEV
ELEV_TYPE   .                                                  KB :ELEV TYPE
~CURVE INFORMATION
#MNEMONIC.UNIT        API CODE       : CURVE DESCRIPTION
#------------------------------------------------------------------------------
DEPTH    .M                          : Measured Depth
TVD      .M                          : True Vertical Depth (TVD)
GR       .API                        : GR:SFINX:rC:NONE:v1 
NPHI     .v/v_decimal                : NPHI:SFINX:rC:NONE:v1 
PHIF     .v/v_decimal                : PHIF:SFINX:rC:NONE:v1 
RHOB     .g/cm3                      : RHOB:SFINX:rC:NONE:v1 
RT       .ohm.m                      : RT:SFINX:rC:NONE:v1 
~A     DEPTH         TVD           GR         NPHI         PHIF         RHOB           RT
# ...
   3111.7031   1089.1643      35.1630       0.2948       0.3648       2.0480       0.9020
   3111.8557   1089.1755      33.8330       0.2907       0.3624       2.0520       0.9030
   3112.0081   1089.1868      33.2080       0.2905       0.3624       2.0520       0.9000
   3112.1604   1089.1979      32.6730       0.2981       0.3618       2.0530       0.8950
   3112.3127   1089.2091      32.4160       0.3105       0.3618       2.0530       0.8790
   3112.4651   1089.2202      32.8890       0.3225       0.3630       2.0510       0.8620
   3112.6177   1089.2314      33.1340       0.3272       0.3642       2.0490       0.8670
   3112.7700   1089.2427      34.0250       0.3250       0.3673       2.0440       0.8720
   3112.9224   1089.2538      34.0930       0.3185       0.3679       2.0430       0.8810
   3113.0747   1089.2650      34.0210       0.3188       0.3703       2.0390       0.8920
   3113.2273   1089.2764      34.0610       0.3194       0.3709       2.0380       0.8920
   3113.3796   1089.2877      33.2890       0.3199       0.3721       2.0360       0.8950
   3113.5320   1089.2991      33.2130       0.3172       0.3721       2.0360       0.8970
   3113.6843   1089.3104      33.1480       0.3045       0.3697       2.0400       0.8990
   3113.8369   1089.3218      33.4820       0.3000       0.3679       2.0430       0.9030
   3113.9893   1089.3333      34.1020       0.3062       0.3642       2.0490       0.8920
   3114.1416   1089.3446      34.0680       0.3088       0.3636       2.0500       0.8900
   3114.2939   1089.3560      33.7930       0.3081       0.3630       2.0510       0.8830
   3114.4463   1089.3673      33.4620       0.3062       0.3630       2.0510       0.8810
   3114.5989   1089.3787      32.3640       0.3076       0.3630       2.0510       0.8690
   3114.7512   1089.3900      31.8260       0.3142       0.3655       2.0470       0.8670
   3114.9036   1089.4014      31.8180       0.3213       0.3655       2.0470       0.8780
   3115.0559   1089.4127      31.8790       0.3249       0.3691       2.0410       0.8850
   3115.2085   1089.4241      32.2950       0.3247       0.3697       2.0400       0.8870
   3115.3608   1089.4354      33.2670       0.3181       0.3715       2.0370       0.8940
   3115.5132   1089.4468      33.6540       0.3176       0.3721       2.0360       0.8960
   3115.6655   1089.4581      33.7920       0.3103       0.3715       2.0370       0.9010
   3115.8181   1089.4696      34.0760       0.3074       0.3703       2.0390       0.9060
   3115.9705   1089.4810      34.2390       0.3026       0.3673       2.0440       0.9100
   3116.1228   1089.4923      34.0510       0.3011       0.3667       2.0450       0.9080
   3116.2751   1089.5037      32.8970       0.2993       0.3624       2.0520       0.9080
   3116.4275   1089.5150      32.6030       0.2992       0.3612       2.0540       0.9040
   3116.5801   1089.5264      33.0610       0.2956       0.3612       2.0540       0.8990
   3116.7324   1089.5377      32.8620       0.2944       0.3618       2.0530       0.8990
   3116.8848   1089.5491      33.0590       0.2934       0.3618       2.0530       0.8880
   3117.0371   1089.5604      33.6560       0.2932       0.3606       2.0550       0.8830
   3117.1897   1089.5718      34.0530       0.2922       0.3606       2.0550       0.8710
   3117.3420   1089.5833      33.7200       0.2988       0.3606       2.0550       0.8690
   3117.4944   1089.5946      33.9290       0.3051       0.3624       2.0520       0.8730
   3117.6467   1089.6060      34.0030       0.3057       0.3630       2.0510       0.8780
   3117.7993   1089.6173      33.4430       0.3040       0.3673       2.0440       0.8900
   3117.9517   1089.6287      33.1950       0.3040       0.3685       2.0420       0.8920
   3118.1040   1089.6400      33.8600       0.3091       0.3691       2.0410       0.8930
   3118.2563   1089.6515      34.1490       0.3154       0.3703       2.0390       0.8960
   3118.4087   1089.6630      34.3480       0.3191       0.3703       2.0390       0.8980
   3118.5613   1089.6744      34.1800       0.3111       0.3691       2.0410       0.9030
   3118.7136   1089.6859      34.1260       0.3102       0.3661       2.0460       0.9040
   3118.8660   1089.6974      34.9640       0.2986       0.3630       2.0510       0.9040
   3119.0183   1089.7089      34.8020       0.3009       0.3612       2.0540       0.9010
   3119.1709   1089.7205      34.3930       0.2993       0.3600       2.0560       0.8990
   3119.3232   1089.7319      34.5470       0.2941       0.3606       2.0550       0.8970
   3119.4756   1089.7434      34.6420       0.3043       0.3618       2.0530       0.8950
   3119.6279   1089.7549      34.5920       0.3070       0.3624       2.0520       0.8910
   3119.7805   1089.7664      33.7600       0.3253       0.3624       2.0520       0.8860
   3119.9329   1089.7778      33.7860       0.3263       0.3618       2.0530       0.8860
   3120.0852   1089.7893      33.5120       0.3097       0.3612       2.0540       0.8670
   3120.2375   1089.8008      33.2690       0.3067       0.3606       2.0550       0.8650
   3120.3899   1089.8123      33.3160       0.3036       0.3606       2.0550       0.8620
   3120.5425   1089.8237      33.1220       0.3041       0.3606       2.0550       0.8720
   3120.6948   1089.8353      33.5590       0.3091       0.3661       2.0460       0.8880
   3120.8472   1089.8468      33.6380       0.3129       0.3691       2.0410       0.8880
   3120.9995   1089.8583      33.6200       0.3142       0.3709       2.0380       0.8950
   3121.1521   1089.8698      33.7020       0.3075       0.3703       2.0390       0.9010
   3121.3044   1089.8812      33.6490       0.3072       0.3673       2.0440       0.9030
   3121.4568   1089.8927      32.9240       0.2933       0.3648       2.0480       0.8960
   3121.6091   1089.9042      32.6860       0.2928       0.3636       2.0500       0.8920
   3121.7617   1089.9156      32.3280       0.2942       0.3636       2.0500       0.8880
   3121.9141   1089.9271      32.1910       0.2950       0.3636       2.0500       0.8850
   3122.0664   1089.9386      31.9950       0.2921       0.3630       2.0510       0.8740
   3122.2188   1089.9501      32.4390       0.2874       0.3630       2.0510       0.8660
   3122.3711   1089.9615      33.3760       0.2955       0.3642       2.0490       0.8730
   3122.5237   1089.9731      33.8430       0.2972       0.3667       2.0450       0.8840
   3122.6760   1089.9846      35.4090       0.3248       0.3667       2.0450       0.8820
   3122.8284   1089.9961      35.8450       0.3283       0.3661       2.0460       0.8790
   3122.9807   1090.0076      35.3820       0.3387       0.3624       2.0520       0.8920
   3123.1333   1090.0190      34.5540       0.3326       0.3624       2.0520       0.8970
   3123.2856   1090.0306      33.3370       0.3188       0.3642       2.0490       0.8990
   3123.4380   1090.0422      32.9140       0.3157       0.3642       2.0490       0.9000
   3123.5903   1090.0537      31.6910       0.3082       0.3624       2.0520       0.8940
   3123.7427   1090.0653      31.4800       0.3048       0.3612       2.0540       0.8940
   3123.8953   1090.0769      32.0000       0.3031       0.3606       2.0550       0.8750
   3124.0476   1090.0885      32.3080       0.3038       0.3618       2.0530       0.8690
   3124.2000   1090.1001      32.5100       0.3160       0.3642       2.0490       0.8640
   3124.3523   1090.1117      32.1420       0.3303       0.3673       2.0440       0.8710
   3124.5049   1090.1233      31.8210       0.3246       0.3697       2.0400       0.8780
   3124.6572   1090.1348      32.4500       0.3196       0.3703       2.0390       0.8920
   3124.8096   1090.1464      32.8900       0.3144       0.3679       2.0430       0.8950
   3124.9619   1090.1580      33.3560       0.3133       0.3648       2.0480       0.8960
   3125.1145   1090.1696      33.4120       0.3137       0.3624       2.0520       0.8910
