#------------------------------------------------------------------------------
#
#   Created by  : [OpenWorks] Log Export Utility (LEXP)
#   Created on  : 2011-12-19 12:32:06
#   Project     : AREA_58_60_21DEC
#   User        : AKAFU
#   Interpreter : AKAFU
#
#------------------------------------------------------------------------------
~VERSION INFORMATION
VERS. 2.0 : CWLS Log ASCII Standard - version 2.0
WRAP.  NO : One line per depth step
~WELL INFORMATION
#MNEMONIC   .UNIT                                           VALUE :DESCRIPTION
#------------------------------------------------------------------------------
STRT        .M                                             0.0000 :START DEPTH
STOP        .M                                          1999.9452 :STOP DEPTH
STEP        .M                                             0.1524 :STEP
NULL        .                                           -999.2500 :NULL VALUE
COMP        .                                             UNKNOWN :COMPANY
WELL        .                                          NO 15/9-13 :WELL
FLD         .                                            SLEIPNER :FIELD
LOC         .                                             UNKNOWN :LOCATION
CNTY        .                                             UNKNOWN :COUNTY
STAT        .                                             UNKNOWN :STATE
CTRY        .                                              Norway :COUNTRY
SRVC        .                                             UNKNOWN :SERVICE COMPANY
DATE        .                                             UNKNOWN :LOG DATE
UWI         .                                          NO 15/9-13 :UNIQUE WELL ID
XCOORD      .                                       437653.695349 :SURFACE X
YCOORD      .                                      6470978.020701 :SURFACE Y
LAT         .                                           58.373878 :LATITUDE
LON         .                                            1.934128 :LONGITUDE
ELEV        .M                                            25.0000 :SURFACE ELEV
ELEV_TYPE   .                                                  KB :ELEV TYPE
~CURVE INFORMATION
#MNEMONIC.UNIT        API CODE       : CURVE DESCRIPTION
#------------------------------------------------------------------------------
DEPTH    .M                          : Measured Depth
CALI     .inches                     : CALI:SFINX:rC:NONE:v1 
DT-CKS   .us/ft                      : DT-CKS:SFINX:rC:NONE:v1 
DT       .us/ft                      : DT:SFINX:rC:NONE:v1 
GR       .API                        : GR:SFINX:rC:NONE:v1 
NPHI     .v/v_decimal                : NPHI:SFINX:rC:NONE:v1 
PHIF     .v/v_decimal                : PHIF:SFINX:rC:NONE:v1 
RFT      .bar         UNKNOWN        : RFT:SFINX:rC:NONE:v1 
RHOB     .g/cm3                      : RHOB:SFINX:rC:NONE:v1 
RT       .ohm.m                      : RT:SFINX:rC:NONE:v1 
SAND     .unitless                   : SAND:SFINX:rC:NONE:v1 
SP       .mV                         : SP:SFINX:rC:NONE:v1 
SW       .v/v_decimal                : SW:SFINX:rC:NONE:v1 
VSH      .v/v_decimal                : VSH:SFINX:rC:NONE:v1 
~A     DEPTH         CALI       DT-CKS           DT           GR         NPHI         PHIF          RFT         RHOB           RT         SAND           SP           SW          VSH
# ...
   1709.9280      14.9920     147.7216       7.3984      59.0310       0.4385    -999.2500    -999.2500       2.0723    -999.2500    -999.2500     136.3700    -999.2500    -999.2500
   1710.0804      15.2030     147.7076       6.7969      58.5310       0.4282    -999.2500    -999.2500       2.0332    -999.2500    -999.2500     138.3700    -999.2500    -999.2500
   1710.2328      14.7970     147.6923       9.5938      62.8440       0.4731    -999.2500    -999.2500       2.0156    -999.2500    -999.2500     137.8700    -999.2500    -999.2500
   1710.3853      14.6560     147.6701      -7.0000      62.6560       0.4697    -999.2500    -999.2500       2.0117    -999.2500    -999.2500     137.5000    -999.2500    -999.2500
   1710.5376      14.8670     147.6591       8.3984      66.1250       0.4844    -999.2500    -999.2500       2.0000    -999.2500    -999.2500     137.7500    -999.2500    -999.2500
   1710.6899      14.5860     147.6387      13.0000      67.2500       0.4683    -999.2500    -999.2500       1.9932    -999.2500    -999.2500     137.6200    -999.2500    -999.2500
   1710.8424      14.6720     147.6286       7.3984      65.0000       0.5015    -999.2500    -999.2500       1.9951    -999.2500    -999.2500     137.8700    -999.2500    -999.2500
   1710.9948      14.8590     147.6140       6.5977      62.5000       0.4712    -999.2500    -999.2500       2.0000    -999.2500    -999.2500     137.5000    -999.2500    -999.2500
   1711.1472      14.6800     147.5856       7.0000      61.3750       0.4673    -999.2500    -999.2500       2.0117    -999.2500    -999.2500     139.3700    -999.2500    -999.2500
   1711.2996      14.2500     147.5732       8.3984      67.3130       0.4502    -999.2500    -999.2500       2.0137    -999.2500    -999.2500     140.1200    -999.2500    -999.2500
   1711.4520      14.6090     147.5597      -7.0000      73.1250       0.4580    -999.2500    -999.2500       2.0156    -999.2500    -999.2500     138.8700    -999.2500    -999.2500
   1711.6044      14.2500     147.5500      -8.6016      69.8750       0.4624    -999.2500    -999.2500       2.0039    -999.2500    -999.2500     138.0000    -999.2500    -999.2500
   1711.7568      14.2030     147.5296      -7.8008      67.7500       0.4771    -999.2500    -999.2500       2.0020    -999.2500    -999.2500     137.6200    -999.2500    -999.2500
   1711.9092      13.9770     147.5122      -8.6016      62.5000       0.4780    -999.2500    -999.2500       2.0020    -999.2500    -999.2500     137.7500    -999.2500    -999.2500
   1712.0616      14.3440     147.4912      -9.6016      63.5000       0.4473    -999.2500    -999.2500       1.9971    -999.2500    -999.2500     137.2500    -999.2500    -999.2500
   1712.2140      14.2730     147.4799       7.3984      61.4060       0.4438    -999.2500    -999.2500       1.9873    -999.2500    -999.2500     137.6200    -999.2500    -999.2500
   1712.3665      14.9530     147.4720       8.3984      59.0940       0.4365    -999.2500    -999.2500       1.9736    -999.2500    -999.2500     137.3700    -999.2500    -999.2500
   1712.5188      14.3980     147.4512      10.3980      61.6250       0.4927    -999.2500    -999.2500       1.9736    -999.2500    -999.2500     137.1200    -999.2500    -999.2500
   1712.6711      13.9140     147.4287      14.1950      63.4060       0.4946    -999.2500    -999.2500       1.9756    -999.2500    -999.2500     134.6200    -999.2500    -999.2500
   1712.8236      13.9530     147.4177      11.5940      64.7500       0.4946    -999.2500    -999.2500       1.9873    -999.2500    -999.2500     137.2500    -999.2500    -999.2500
   1712.9760      14.0230     147.3967      10.0000      62.5310       0.4536    -999.2500    -999.2500       1.9922    -999.2500    -999.2500     137.1200    -999.2500    -999.2500
   1713.1284      14.2270     147.3921      13.1950      62.0000       0.4512    -999.2500    -999.2500       1.9971    -999.2500    -999.2500     137.0000    -999.2500    -999.2500
   1713.2808      13.8830     147.3723      11.5940      64.4380       0.4434    -999.2500    -999.2500       1.9980    -999.2500    -999.2500     138.1200    -999.2500    -999.2500
   1713.4332      13.7730     147.3439      12.0000      64.5630       0.4453    -999.2500    -999.2500       2.0117    -999.2500    -999.2500     137.6200    -999.2500    -999.2500
   1713.5856      13.6480     147.3378      10.3980      65.5630       0.4258    -999.2500    -999.2500       2.0137    -999.2500    -999.2500     137.3700    -999.2500    -999.2500
   1713.7380      13.6480     147.3186       9.5938      66.5630       0.4707    -999.2500    -999.2500       2.0039    -999.2500    -999.2500     137.6200    -999.2500    -999.2500
   1713.8904      13.6250     147.3077      12.1950      66.9380       0.4780    -999.2500    -999.2500       1.9912    -999.2500    -999.2500     137.2500    -999.2500    -999.2500
   1714.0428      13.7500     147.2939      13.0000      67.6880       0.5122    -999.2500    -999.2500       1.9863    -999.2500    -999.2500     137.7500    -999.2500    -999.2500
   1714.1952      14.0700     147.2717      14.5940      64.6880       0.4502    -999.2500    -999.2500       1.9922    -999.2500    -999.2500     137.7500    -999.2500    -999.2500
   1714.3477      13.9300     147.2543      14.1950      66.0000       0.4673    -999.2500    -999.2500       1.9951    -999.2500    -999.2500     139.6200    -999.2500    -999.2500
   1714.5000      13.7970     147.2388      28.0000      65.5630       0.4336    -999.2500    -999.2500       1.9971    -999.2500    -999.2500     140.6200    -999.2500    -999.2500
   1714.6523      14.0000     147.2302      14.7970      66.3750       0.4414    -999.2500    -999.2500       1.9902    -999.2500    -999.2500     138.8700    -999.2500    -999.2500
   1714.8048      14.7970     147.2095      14.3980      62.1250       0.4302    -999.2500    -999.2500       1.9824    -999.2500    -999.2500     138.3700    -999.2500    -999.2500
   1714.9572      14.0940     147.1921      12.5940      59.1250       0.4326    -999.2500    -999.2500       1.9668    -999.2500    -999.2500     138.0000    -999.2500    -999.2500
   1715.1096      14.6800     147.1763      26.0000      57.9060       0.4614    -999.2500    -999.2500       1.9756    -999.2500    -999.2500     137.8700    -999.2500    -999.2500
   1715.2620      13.9770     147.1674      30.7970      53.7190       0.4258    -999.2500    -999.2500       1.9629    -999.2500    -999.2500     137.7500    -999.2500    -999.2500
   1715.4144      13.8910     147.1470      14.3980      48.9690       0.4346    -999.2500    -999.2500       1.9570    -999.2500    -999.2500     138.0000    -999.2500    -999.2500
   1715.5668      13.6720     147.1297      12.7970      49.4060       0.4043    -999.2500    -999.2500       1.9434    -999.2500    -999.2500     138.5000    -999.2500    -999.2500
   1715.7192      13.6250     147.1138      13.0000      48.5310       0.4463    -999.2500    -999.2500       1.9658    -999.2500    -999.2500     137.2500    -999.2500    -999.2500
   1715.8716      14.0000     147.0986      11.3980      48.9060       0.4409    -999.2500    -999.2500       1.9463    -999.2500    -999.2500     135.5000    -999.2500    -999.2500
   1716.0240      13.4920     147.0891      13.7970      43.7500       0.4639    -999.2500    -999.2500       1.9678    -999.2500    -999.2500     137.2500    -999.2500    -999.2500
   1716.1764      13.6480     147.0687      13.5940      47.5310       0.5083    -999.2500    -999.2500       1.9678    -999.2500    -999.2500     137.3700    -999.2500    -999.2500
   1716.3289      13.4610     147.0513      13.5940      51.8130       0.5102    -999.2500    -999.2500       2.0098    -999.2500    -999.2500     137.1200    -999.2500    -999.2500
   1716.4812      13.7660     147.0364      13.1950      55.6560       0.5195    -999.2500    -999.2500       2.0176    -999.2500    -999.2500     137.6200    -999.2500    -999.2500
