#------------------------------------------------------------------------------
#
#   Created by  : [OpenWorks] Log Export Utility (LEXP)
#   Created on  : 2002-04-08 13:44:35
#   Project     : AREA_58_60_21DEC
#   User        : G15173
#   Interpreter : RONHO
#
#------------------------------------------------------------------------------
~VERSION INFORMATION
VERS. 2.0 : CWLS Log ASCII Standard - version 2.0
WRAP.  NO : One line per depth step
~WELL INFORMATION
#MNEMONIC   .UNIT                                           VALUE :DESCRIPTION
#------------------------------------------------------------------------------
STRT        .M                                           575.3100 :START DEPTH
STOP        .M                                          3739.8960 :STOP DEPTH
STEP        .M                                             0.1524 :STEP
NULL        .                                           -999.2500 :NULL VALUE
COMP        .                                             UNKNOWN :COMPANY
WELL        .                                           15/9-A-16 :WELL
FLD         .                                            SLEIPNER :FIELD
LOC         .                                             UNKNOWN :LOCATION
CNTY        .                                             UNKNOWN :COUNTY
STAT        .                                             UNKNOWN :STATE
CTRY        .                                              Norway :COUNTRY
SRVC        .                                             UNKNOWN :SERVICE COMPANY
DATE        .                                             UNKNOWN :LOG DATE
UWI         .                                        NO 15/9-A-16 :UNIQUE WELL ID
XCOORD      .                                       436137.417107 :SURFACE X
YCOORD      .                                      6470282.857379 :SURFACE Y
LAT         .                                           58.367417 :LATITUDE
LON         .                                            1.908404 :LONGITUDE
ELEV        .M                                            78.0000 :SURFACE ELEV
ELEV_TYPE   .                                                  KB :ELEV TYPE
~CURVE INFORMATION
#MNEMONIC.UNIT        API CODE       : CURVE DESCRIPTION
#------------------------------------------------------------------------------
DEPTH    .M                          : Measured Depth
TVD      .M                          : True Vertical Depth (TVD)
GR       .API                        : GR:SFINX:rC:NONE:v1 
NPHI     .v/v_decimal                : NPHI:SFINX:rC:NONE:v1 
PHIF     .v/v_decimal                : PHIF:SFINX:rC:NONE:v1 
RHOB     .g/cm3                      : RHOB:SFINX:rC:NONE:v1 
RT       .ohm.m                      : RT:SFINX:rC:NONE:v1 
~A     DEPTH         TVD           GR         NPHI         PHIF         RHOB           RT
# ...
   1253.4900    846.9909     109.7830       0.4386    -999.2500       2.1870       2.7480
   1253.6425    847.0055     109.4220       0.4386    -999.2500       2.1860       2.7290
   1253.7948    847.0200     108.5870       0.3989    -999.2500       2.1850       2.6900
   1253.9471    847.0346     108.1690       0.3802    -999.2500       2.1850       2.6710
   1254.0996    847.0491     107.3340       0.3845    -999.2500       2.1790       2.6360
   1254.2520    847.0637     107.0680       0.3872    -999.2500       2.1750       2.6070
   1254.4044    847.0783     107.0200       0.4122    -999.2500       2.1740       2.5920
   1254.5568    847.0928     106.9230       0.4306    -999.2500       2.1690       2.5620
   1254.7092    847.1074     106.8750       0.4348    -999.2500       2.1660       2.5490
   1254.8616    847.1219     107.0590       0.4405    -999.2500       2.1610       2.5230
   1255.0140    847.1365     107.2730       0.4405    -999.2500       2.1620       2.5110
   1255.1664    847.1511     107.7000       0.4383    -999.2500       2.1650       2.4860
   1255.3188    847.1656     107.9140       0.4371    -999.2500       2.1670       2.4730
   1255.4712    847.1802     109.1400       0.3879    -999.2500       2.1680       2.4610
   1255.6237    847.1948     110.2140       0.3395    -999.2500       2.1670       2.4480
   1255.7760    847.2093     112.3630       0.3556    -999.2500       2.1640       2.4230
   1255.9283    847.2239     113.4370       0.3636    -999.2500       2.1620       2.4110
   1256.0808    847.2385     112.0080       0.3701    -999.2500       2.1620       2.3920
   1256.2332    847.2530     109.7110       0.3701    -999.2500       2.1620       2.3830
   1256.3856    847.2676     105.1160       0.3818    -999.2500       2.1590       2.3640
   1256.5380    847.2821     102.8190       0.3876    -999.2500       2.1580       2.3550
   1256.6904    847.2967     105.5790       0.3869    -999.2500       2.1580       2.3410
   1256.8428    847.3112     110.4160       0.3862    -999.2500       2.1590       2.3340
   1256.9952    847.3258     120.0900       0.3862    -999.2500       2.1610       2.3220
   1257.1476    847.3403     124.9270       0.3862    -999.2500       2.1620       2.3160
   1257.3000    847.3549     129.7660       0.3862    -999.2500       2.1570       2.3090
   1257.4524    847.3687     121.7540       0.3754    -999.2500       2.1460       2.2760
   1257.6049    847.3823     117.7480       0.3700    -999.2500       2.1410       2.2590
   1257.7572    847.3961     112.4060       0.3285    -999.2500       2.1370       2.2370
   1257.9095    847.4097     110.8070       0.2955    -999.2500       2.1370       2.2330
   1258.0620    847.4235     107.6100       0.3089    -999.2500       2.1360       2.2250
   1258.2144    847.4372     106.0120       0.3157    -999.2500       2.1350       2.2220
   1258.3668    847.4509     103.7260       0.3201    -999.2500       2.1330       2.2160
   1258.5192    847.4646     104.8080       0.3201    -999.2500       2.1300       2.2060
   1258.6716    847.4783     106.9710       0.3334    -999.2500       2.1230       2.1860
   1258.8240    847.4920     108.0530       0.3400    -999.2500       2.1200       2.1760
   1258.9764    847.5057     108.4400       0.3400    -999.2500       2.1120       2.1610
   1259.1288    847.5195     108.0000       0.3405    -999.2500       2.1060       2.1570
   1259.2812    847.5331     107.1210       0.3415    -999.2500       2.0930       2.1490
   1259.4336    847.5469     106.6810       0.3420    -999.2500       2.0910       2.1450
   1259.5859    847.5605     105.6240       0.3421    -999.2500       2.0880       2.1450
   1259.7384    847.5743     104.9450       0.3487    -999.2500       2.0870       2.1480
   1259.8907    847.5880     103.5870       0.3618    -999.2500       2.0840       2.1550
   1260.0432    847.6017     102.9080       0.3647    -999.2500       2.0830       2.1580
   1260.1956    847.6154     103.7000       0.3671    -999.2500       2.0800       2.1560
   1260.3480    847.6292     104.6230       0.3695    -999.2500       2.0780       2.1510
   1260.5004    847.6428     106.4690       0.3737    -999.2500       2.0760       2.1410
   1260.6528    847.6566     107.6590       0.3344    -999.2500       2.0640       2.1350
   1260.8052    847.6703     106.4860       0.3334    -999.2500       2.0590       2.1310
   1260.9576    847.6840     104.1400       0.3423    -999.2500       2.0500       2.1240
   1261.1100    847.6977     102.9670       0.3461    -999.2500       2.0490       2.1200
   1261.2625    847.7114     102.2340       0.3461    -999.2500       2.0570       2.1150
   1261.4148    847.7251     102.2340       0.3623    -999.2500       2.0610       2.1170
   1261.5671    847.7388     102.2340       0.3948    -999.2500       2.0640       2.1190
   1261.7196    847.7525     102.2340       0.3979    -999.2500       2.0640       2.1210
   1261.8719    847.7662     103.1470       0.3913    -999.2500       2.0620       2.1260
   1262.0244    847.7800     104.0590       0.3846    -999.2500       2.0610       2.1310
   1262.1768    847.7936     105.8840       0.3712    -999.2500       2.0610       2.1400
   1262.3292    847.8074     106.7960       0.3693    -999.2500       2.0600       2.1440
   1262.4816    847.8210     107.2470       0.3741    -999.2500       2.0620       2.1530
   1262.6340    847.8347     107.6490       0.3789    -999.2500       2.0650       2.1580
   1262.7864    847.8483     108.4520       0.3868    -999.2500       2.0640       2.1690
   1262.9388    847.8619     108.6090       0.4371    -999.2500       2.0640       2.1740
   1263.0912    847.8755     107.5200       0.4829    -999.2500       2.0610       2.1720
   1263.2437    847.8892     106.9760       0.4829    -999.2500       2.0600       2.1700
   1263.3960    847.9028     105.8880       0.4617    -999.2500       2.0550       2.1650
   1263.5483    847.9164     105.6250       0.4404    -999.2500       2.0520       2.1620
   1263.7008    847.9301     103.5980       0.4190    -999.2500       2.0500       2.1670
   1263.8531    847.9437     101.5710       0.4190    -999.2500       2.0430       2.1790
   1264.0056    847.9574     100.7420       0.4347    -999.2500       2.0390       2.1850
   1264.1580    847.9710     104.7780       0.4661    -999.2500       2.0340       2.1880
   1264.3104    847.9847     106.7970       0.4796    -999.2500       2.0330       2.1880
   1264.4628    847.9983     110.8330       0.4796    -999.2500       2.0320       2.1880
   1264.6152    848.0119     112.6770       0.4796    -999.2500       2.0310       2.1880
   1264.7676    848.0256     110.5580       0.5166    -999.2500       2.0310       2.1730
   1264.9200    848.0392     109.4990       0.5344    -999.2500       2.0320       2.1650
   1265.0724    848.0529     107.3800       0.5344    -999.2500       2.0330       2.1490
   1265.2249    848.0665     107.1170       0.5344    -999.2500       2.0330       2.1420
   1265.3772    848.0801     107.2350       0.5130    -999.2500       2.0340       2.1510
   1265.5295    848.0938     107.2940       0.5099    -999.2500       2.0340       2.1600
   1265.6820    848.1074     107.3880       0.4682    -999.2500       2.0340       2.1790
   1265.8344    848.1210     106.0910       0.4473    -999.2500       2.0340       2.1820
   1265.9868    848.1346     103.4980       0.4451    -999.2500       2.0440       2.1900
   1266.1392    848.1483     102.2010       0.4388    -999.2500       2.0540       2.1950
   1266.2916    848.1619     100.9330       0.4261    -999.2500       2.0650       2.2020
   1266.4440    848.1755     100.8530       0.4198    -999.2500       2.0650       2.1940
   1266.5964    848.1892     100.6930       0.4185    -999.2500       2.0700       2.1780
   1266.7488    848.2028     100.6130       0.4060    -999.2500       2.0710       2.1700
   1266.9012    848.2165     100.4710       0.3808    -999.2500       2.0720       2.1550
