#------------------------------------------------------------------------------
#
#   Created by  : [OpenWorks] Log Export Utility (LEXP)
#   Created on  : 2011-12-19 12:32:06
#   Project     : AREA_58_60_21DEC
#   User        : AKAFU
#   Interpreter : AKAFU
#
#------------------------------------------------------------------------------
~VERSION INFORMATION
VERS. 2.0 : CWLS Log ASCII Standard - version 2.0
WRAP.  NO : One line per depth step
~WELL INFORMATION
#MNEMONIC   .UNIT                                           VALUE :DESCRIPTION
#------------------------------------------------------------------------------
STRT        .M                                             0.0000 :START DEPTH
STOP        .M                                          1999.9452 :STOP DEPTH
STEP        .M                                             0.1524 :STEP
NULL        .                                           -999.2500 :NULL VALUE
COMP        .                                             UNKNOWN :COMPANY
WELL        .                                          NO 15/9-13 :WELL
FLD         .                                            SLEIPNER :FIELD
LOC         .                                             UNKNOWN :LOCATION
CNTY        .                                             UNKNOWN :COUNTY
STAT        .                                             UNKNOWN :STATE
CTRY        .                                              Norway :COUNTRY
SRVC        .                                             UNKNOWN :SERVICE COMPANY
DATE        .                                             UNKNOWN :LOG DATE
UWI         .                                          NO 15/9-13 :UNIQUE WELL ID
XCOORD      .                                       437653.695349 :SURFACE X
YCOORD      .                                      6470978.020701 :SURFACE Y
LAT         .                                           58.373878 :LATITUDE
LON         .                                            1.934128 :LONGITUDE
ELEV        .M                                            25.0000 :SURFACE ELEV
ELEV_TYPE   .                                                  KB :ELEV TYPE
~CURVE INFORMATION
#MNEMONIC.UNIT        API CODE       : CURVE DESCRIPTION
#------------------------------------------------------------------------------
DEPTH    .M                          : Measured Depth
CALI     .inches                     : CALI:SFINX:rC:NONE:v1 
DT-CKS   .us/ft                      : DT-CKS:SFINX:rC:NONE:v1 
DT       .us/ft                      : DT:SFINX:rC:NONE:v1 
GR       .API                        : GR:SFINX:rC:NONE:v1 
NPHI     .v/v_decimal                : NPHI:SFINX:rC:NONE:v1 
PHIF     .v/v_decimal                : PHIF:SFINX:rC:NONE:v1 
RFT      .bar         UNKNOWN        : RFT:SFINX:rC:NONE:v1 
RHOB     .g/cm3                      : RHOB:SFINX:rC:NONE:v1 
RT       .ohm.m                      : RT:SFINX:rC:NONE:v1 
SAND     .unitless                   : SAND:SFINX:rC:NONE:v1 
SP       .mV                         : SP:SFINX:rC:NONE:v1 
SW       .v/v_decimal                : SW:SFINX:rC:NONE:v1 
VSH      .v/v_decimal                : VSH:SFINX:rC:NONE:v1 
~A     DEPTH         CALI       DT-CKS           DT           GR         NPHI         PHIF          RFT         RHOB           RT         SAND           SP           SW          VSH
# ...
   1595.9327      14.3670     142.0998     154.7500      82.8130       0.4912    -999.2500    -999.2500       2.0684    -999.2500    -999.2500     133.5000    -999.2500    -999.2500
   1596.0852      14.3440     141.9245     154.5000      86.4380       0.5059    -999.2500    -999.2500       2.0566    -999.2500    -999.2500     135.6200    -999.2500    -999.2500
   1596.2375      14.3910     142.5436     154.3700      83.8130       0.5249    -999.2500    -999.2500       2.0586    -999.2500    -999.2500     135.6200    -999.2500    -999.2500
   1596.3900      14.0940     143.5263     156.1200      82.3750       0.5063    -999.2500    -999.2500       2.0645    -999.2500    -999.2500     135.6200    -999.2500    -999.2500
   1596.5424      14.2110     143.9082     156.5000      77.5000       0.5273    -999.2500    -999.2500       2.0527    -999.2500    -999.2500     136.0000    -999.2500    -999.2500
   1596.6948      14.1640     143.5107     156.5000      81.3130       0.5435    -999.2500    -999.2500       2.0410    -999.2500    -999.2500     136.6200    -999.2500    -999.2500
   1596.8472      14.2810     142.8124     155.5000      78.4380       0.5479    -999.2500    -999.2500       2.0371    -999.2500    -999.2500     135.2500    -999.2500    -999.2500
   1596.9996      14.1170     142.2946     155.0000      81.0000       0.4961    -999.2500    -999.2500       2.0430    -999.2500    -999.2500     135.8700    -999.2500    -999.2500
   1597.1520      13.9770     141.8349     154.5000      75.9380       0.4248    -999.2500    -999.2500       2.0469    -999.2500    -999.2500     135.5000    -999.2500    -999.2500
   1597.3044      13.9840     141.5463     154.1200      84.1250       0.3950    -999.2500    -999.2500       2.0371    -999.2500    -999.2500     135.6200    -999.2500    -999.2500
   1597.4568      14.0230     141.6185     154.0000      86.8750       0.3906    -999.2500    -999.2500       2.0293    -999.2500    -999.2500     136.0000    -999.2500    -999.2500
   1597.6093      14.0230     142.4479     154.3700      91.8130       0.4370    -999.2500    -999.2500       2.0313    -999.2500    -999.2500     135.6200    -999.2500    -999.2500
   1597.7616      14.1250     143.5339     156.1200      87.1250       0.4863    -999.2500    -999.2500       2.0293    -999.2500    -999.2500     137.1200    -999.2500    -999.2500
   1597.9139      14.0550     143.3065     156.5000      87.3750       0.4780    -999.2500    -999.2500       2.0313    -999.2500    -999.2500     136.7500    -999.2500    -999.2500
   1598.0664      14.2110     142.2458     155.1200      87.8750       0.4536    -999.2500    -999.2500       2.0254    -999.2500    -999.2500     137.7500    -999.2500    -999.2500
   1598.2188      14.2270     141.4179     154.1200      90.1880       0.4380    -999.2500    -999.2500       2.0273    -999.2500    -999.2500     136.8700    -999.2500    -999.2500
   1598.3712      14.2730     141.0970     153.5000      86.6880       0.4922    -999.2500    -999.2500       2.0215    -999.2500    -999.2500     133.8700    -999.2500    -999.2500
   1598.5236      14.1880     141.2582     153.7500      86.3130       0.5112    -999.2500    -999.2500       2.0254    -999.2500    -999.2500     136.0000    -999.2500    -999.2500
   1598.6760      14.0940     141.3994     154.0000      85.9380       0.4976    -999.2500    -999.2500       2.0391    -999.2500    -999.2500     135.8700    -999.2500    -999.2500
   1598.8284      14.0940     141.0107     154.0000      88.8750       0.4351    -999.2500    -999.2500       2.0430    -999.2500    -999.2500     136.3700    -999.2500    -999.2500
   1598.9808      14.1880     139.8220     153.1200      85.1880       0.4648    -999.2500    -999.2500       2.0410    -999.2500    -999.2500     135.8700    -999.2500    -999.2500
   1599.1332      14.4450     138.6805     151.1200      77.1250       0.4731    -999.2500    -999.2500       2.0352    -999.2500    -999.2500     136.3700    -999.2500    -999.2500
   1599.2856      14.6560     138.2218     151.0000      72.5000       0.5146    -999.2500    -999.2500       2.0449    -999.2500    -999.2500     136.3700    -999.2500    -999.2500
   1599.4380      14.8130     139.1115     150.5000      72.3130       0.5142    -999.2500    -999.2500       2.0430    -999.2500    -999.2500     136.1200    -999.2500    -999.2500
   1599.5905      15.2580     140.7766     153.1200      76.8750       0.4741    -999.2500    -999.2500       2.0391    -999.2500    -999.2500     136.1200    -999.2500    -999.2500
   1599.7428      14.7730     141.9270     154.3700      79.8130       0.5283    -999.2500    -999.2500       2.0313    -999.2500    -999.2500     136.2500    -999.2500    -999.2500
   1599.8951      14.6330     142.6844     155.0000      81.1250       0.4985    -999.2500    -999.2500       2.0293    -999.2500    -999.2500     137.2500    -999.2500    -999.2500
   1600.0476      14.7890     142.7560     155.7500      78.0630       0.5264    -999.2500    -999.2500       2.0234    -999.2500    -999.2500     136.0000    -999.2500    -999.2500
   1600.2000      14.6950     141.6926     155.0000      80.1880       0.4453    -999.2500    -999.2500       2.0117    -999.2500    -999.2500     136.1200    -999.2500    -999.2500
   1600.3524      14.7190     139.7699     153.0000      84.5630       0.4810    -999.2500    -999.2500       2.0137    -999.2500    -999.2500     136.8700    -999.2500    -999.2500
   1600.5048      14.7890     137.5988     151.0000      85.6880       0.4604    -999.2500    -999.2500       2.0254    -999.2500    -999.2500     137.3700    -999.2500    -999.2500
   1600.6572      14.8200     135.6145     148.7500      82.0630       0.4731    -999.2500    -999.2500       2.0410    -999.2500    -999.2500     137.2500    -999.2500    -999.2500
   1600.8096      14.9060     135.2670     147.1200      72.3750       0.4570    -999.2500    -999.2500       2.0488    -999.2500    -999.2500     136.3700    -999.2500    -999.2500
   1600.9620      15.2340     136.5393     148.5000      77.3130       0.4585    -999.2500    -999.2500       2.0488    -999.2500    -999.2500     136.5000    -999.2500    -999.2500
   1601.1144      15.8130     138.3623     150.3700      76.3130       0.4434    -999.2500    -999.2500       2.0547    -999.2500    -999.2500     135.7500    -999.2500    -999.2500
   1601.2668      15.4920     139.6611     152.1200      76.7500       0.4248    -999.2500    -999.2500       2.0508    -999.2500    -999.2500     135.7500    -999.2500    -999.2500
   1601.4192      15.4450     140.2387     152.7500      71.6880       0.4614    -999.2500    -999.2500       2.0488    -999.2500    -999.2500     136.7500    -999.2500    -999.2500
   1601.5717      15.1170     140.8400     153.1200      74.5630       0.4712    -999.2500    -999.2500       2.0449    -999.2500    -999.2500     136.2500    -999.2500    -999.2500
   1601.7240      15.0860     142.0672     154.0000      81.6250       0.4551    -999.2500    -999.2500       2.0488    -999.2500    -999.2500     136.8700    -999.2500    -999.2500
   1601.8763      15.0390     143.7186     155.7500      82.8130       0.4502    -999.2500    -999.2500       2.0547    -999.2500    -999.2500     136.7500    -999.2500    -999.2500
   1602.0288      14.6250     144.6013     157.3700      81.1880       0.4883    -999.2500    -999.2500       2.0508    -999.2500    -999.2500     137.2500    -999.2500    -999.2500
   1602.1812      14.5860     142.8850     157.3700      78.4380       0.4951    -999.2500    -999.2500       2.0371    -999.2500    -999.2500     136.2500    -999.2500    -999.2500
   1602.3336      14.4610     138.6829     152.7500      79.3130       0.5273    -999.2500    -999.2500       2.0254    -999.2500    -999.2500     135.8700    -999.2500    -999.2500
   1602.4860      14.4220     135.2344     148.3700      79.6880       0.4697    -999.2500    -999.2500       2.0273    -999.2500    -999.2500     136.3700    -999.2500    -999.2500
