#------------------------------------------------------------------------------
#
#   Created by  : [OpenWorks] Log Export Utility (LEXP)
#   Created on  : 2011-12-19 12:32:06
#   Project     : AREA_58_60_21DEC
#   User        : AKAFU
#   Interpreter : AKAFU
#
#------------------------------------------------------------------------------
~VERSION INFORMATION
VERS. 2.0 : CWLS Log ASCII Standard - version 2.0
WRAP.  NO : One line per depth step
~WELL INFORMATION
#MNEMONIC   .UNIT                                           VALUE :DESCRIPTION
#------------------------------------------------------------------------------
STRT        .M                                             0.0000 :START DEPTH
STOP        .M                                          1999.9452 :STOP DEPTH
STEP        .M                                             0.1524 :STEP
NULL        .                                           -999.2500 :NULL VALUE
COMP        .                                             UNKNOWN :COMPANY
WELL        .                                          NO 15/9-13 :WELL
FLD         .                                            SLEIPNER :FIELD
LOC         .                                             UNKNOWN :LOCATION
CNTY        .                                             UNKNOWN :COUNTY
STAT        .                                             UNKNOWN :STATE
CTRY        .                                              Norway :COUNTRY
SRVC        .                                             UNKNOWN :SERVICE COMPANY
DATE        .                                             UNKNOWN :LOG DATE
UWI         .                                          NO 15/9-13 :UNIQUE WELL ID
XCOORD      .                                       437653.695349 :SURFACE X
YCOORD      .                                      6470978.020701 :SURFACE Y
LAT         .                                           58.373878 :LATITUDE
LON         .                                            1.934128 :LONGITUDE
ELEV        .M                                            25.0000 :SURFACE ELEV
ELEV_TYPE   .                                                  KB :ELEV TYPE
~CURVE INFORMATION
#MNEMONIC.UNIT        API CODE       : CURVE DESCRIPTION
#------------------------------------------------------------------------------
DEPTH    .M                          : Measured Depth
CALI     .inches                     : CALI:SFINX:rC:NONE:v1 
DT-CKS   .us/ft                      : DT-CKS:SFINX:rC:NONE:v1 
DT       .us/ft                      : DT:SFINX:rC:NONE:v1 
GR       .API                        : GR:SFINX:rC:NONE:v1 
NPHI     .v/v_decimal                : NPHI:SFINX:rC:NONE:v1 
PHIF     .v/v_decimal                : PHIF:SFINX:rC:NONE:v1 
RFT      .bar         UNKNOWN        : RFT:SFINX:rC:NONE:v1 
RHOB     .g/cm3                      : RHOB:SFINX:rC:NONE:v1 
RT       .ohm.m                      : RT:SFINX:rC:NONE:v1 
SAND     .unitless                   : SAND:SFINX:rC:NONE:v1 
SP       .mV                         : SP:SFINX:rC:NONE:v1 
SW       .v/v_decimal                : SW:SFINX:rC:NONE:v1 
VSH      .v/v_decimal                : VSH:SFINX:rC:NONE:v1 
~A     DEPTH         CALI       DT-CKS           DT           GR         NPHI         PHIF          RFT         RHOB           RT         SAND           SP           SW          VSH
# ...
   1649.5776      14.4690     144.9604     159.3700      73.8750       0.4736    -999.2500    -999.2500       1.9688    -999.2500    -999.2500     138.5000    -999.2500    -999.2500
   1649.7300      14.0000     144.7695     156.7500      76.3750       0.4331    -999.2500    -999.2500       1.9805    -999.2500    -999.2500     137.8700    -999.2500    -999.2500
   1649.8824      14.2810     144.5791     157.7500      69.3750       0.4536    -999.2500    -999.2500       1.9912    -999.2500    -999.2500     137.5000    -999.2500    -999.2500
   1650.0348      14.8830     142.6878     154.1200      71.9380       0.4771    -999.2500    -999.2500       2.0000    -999.2500    -999.2500     137.3700    -999.2500    -999.2500
   1650.1873      14.7500     133.2458     141.7500      71.8750       0.4863    -999.2500    -999.2500       2.0156    -999.2500    -999.2500     135.2500    -999.2500    -999.2500
   1650.3396      14.9690     133.6909     148.3700      75.6880       0.4893    -999.2500    -999.2500       2.0273    -999.2500    -999.2500     136.6200    -999.2500    -999.2500
   1650.4919      13.9060     134.1353     146.7500      78.3130       0.5244    -999.2500    -999.2500       2.0371    -999.2500    -999.2500     137.0000    -999.2500    -999.2500
   1650.6444      13.7970     137.1403     152.3700      79.1250       0.5034    -999.2500    -999.2500       2.0195    -999.2500    -999.2500     137.0000    -999.2500    -999.2500
   1650.7968      13.8130     147.5503     166.7500      80.9380       0.4985    -999.2500    -999.2500       2.0098    -999.2500    -999.2500     136.6200    -999.2500    -999.2500
   1650.9492      13.7500     150.2309     163.5000      82.3130       0.4395    -999.2500    -999.2500       1.9971    -999.2500    -999.2500     136.2500    -999.2500    -999.2500
   1651.1016      13.7030     152.9072     167.3700      82.2500       0.5005    -999.2500    -999.2500       1.9873    -999.2500    -999.2500     136.7500    -999.2500    -999.2500
   1651.2540      13.9530     154.3011     167.5000      82.1250       0.4995    -999.2500    -999.2500       1.9902    -999.2500    -999.2500     136.1200    -999.2500    -999.2500
   1651.4064      13.8200     151.9791     163.1200      78.5630       0.4922    -999.2500    -999.2500       1.9912    -999.2500    -999.2500     136.8700    -999.2500    -999.2500
   1651.5588      13.7660     148.1933     158.5000      80.3130       0.4663    -999.2500    -999.2500       2.0039    -999.2500    -999.2500     136.7500    -999.2500    -999.2500
   1651.7112      13.9300     144.4014     155.7500      81.6880       0.4702    -999.2500    -999.2500       2.0059    -999.2500    -999.2500     137.3700    -999.2500    -999.2500
   1651.8636      14.1410     142.4442     154.7500      83.7500       0.4751    -999.2500    -999.2500       1.9951    -999.2500    -999.2500     136.2500    -999.2500    -999.2500
   1652.0160      14.2500     142.6320     156.0000      81.0630       0.4570    -999.2500    -999.2500       1.9785    -999.2500    -999.2500     136.5000    -999.2500    -999.2500
   1652.1685      13.7190     145.8492     158.3700      76.9380       0.4385    -999.2500    -999.2500       1.9766    -999.2500    -999.2500     137.0000    -999.2500    -999.2500
   1652.3208      13.8590     145.4525     159.3700      73.1880       0.4443    -999.2500    -999.2500       1.9863    -999.2500    -999.2500     136.5000    -999.2500    -999.2500
   1652.4731      14.0780     145.0564     157.0000      70.9380       0.4468    -999.2500    -999.2500       2.0059    -999.2500    -999.2500     137.1200    -999.2500    -999.2500
   1652.6256      13.9060     145.3874     159.0000      70.0000       0.4873    -999.2500    -999.2500       2.0059    -999.2500    -999.2500     137.1200    -999.2500    -999.2500
   1652.7780      14.1410     145.2237     158.0000      69.9380       0.5825    -999.2500    -999.2500       2.0098    -999.2500    -999.2500     137.7500    -999.2500    -999.2500
   1652.9304      13.8910     135.7774     138.5000      72.6880       0.6260    -999.2500    -999.2500       2.0000    -999.2500    -999.2500     139.0000    -999.2500    -999.2500
   1653.0828      13.9060     126.3311     137.7500      67.1880       0.6118    -999.2500    -999.2500       2.0293    -999.2500    -999.2500     139.3700    -999.2500    -999.2500
   1653.2352      13.8360     124.4428     137.0000      62.5310       0.4917    -999.2500    -999.2500       2.0547    -999.2500    -999.2500     137.3700    -999.2500    -999.2500
   1653.3876      13.8130     124.9025     138.1200      57.8750       0.5107    -999.2500    -999.2500       2.1055    -999.2500    -999.2500     137.0000    -999.2500    -999.2500
   1653.5400      13.7270     134.8038     155.5000      62.8750       0.4639    -999.2500    -999.2500       2.0762    -999.2500    -999.2500     137.6200    -999.2500    -999.2500
   1653.6924      13.8830     144.7052     161.5000      65.5000       0.5068    -999.2500    -999.2500       2.0508    -999.2500    -999.2500     137.6200    -999.2500    -999.2500
   1653.8448      14.5390     148.5729     162.1200      69.4380       0.4375    -999.2500    -999.2500       2.0020    -999.2500    -999.2500     137.0000    -999.2500    -999.2500
   1653.9972      14.9450     149.6989     163.0000      70.7500       0.4834    -999.2500    -999.2500       1.9873    -999.2500    -999.2500     137.2500    -999.2500    -999.2500
   1654.1497      15.3980     150.0899     163.1200      74.1250       0.4722    -999.2500    -999.2500       1.9756    -999.2500    -999.2500     137.1200    -999.2500    -999.2500
   1654.3020      14.9220     149.3002     161.5000      76.1880       0.4985    -999.2500    -999.2500       1.9727    -999.2500    -999.2500     137.0000    -999.2500    -999.2500
   1654.4543      14.7030     148.1032     160.5000      73.6250       0.4692    -999.2500    -999.2500       1.9756    -999.2500    -999.2500     133.6200    -999.2500    -999.2500
   1654.6068      14.7270     147.4122     160.1200      71.9380       0.4595    -999.2500    -999.2500       1.9746    -999.2500    -999.2500     137.1200    -999.2500    -999.2500
   1654.7592      14.7270     148.1712     161.7500      66.0000       0.4351    -999.2500    -999.2500       1.9824    -999.2500    -999.2500     137.1200    -999.2500    -999.2500
   1654.9116      14.8910     149.6818     163.5000      68.5000       0.4600    -999.2500    -999.2500       1.9893    -999.2500    -999.2500     137.2500    -999.2500    -999.2500
   1655.0640      14.1480     150.4703     163.5000      70.4380       0.4771    -999.2500    -999.2500       2.0039    -999.2500    -999.2500     137.6200    -999.2500    -999.2500
   1655.2164      14.9220     150.5840     163.5000      76.3130       0.5020    -999.2500    -999.2500       1.9961    -999.2500    -999.2500     136.2500    -999.2500    -999.2500
   1655.3688      15.0940     150.8723     164.0000      79.0000       0.4761    -999.2500    -999.2500       1.9922    -999.2500    -999.2500     136.8700    -999.2500    -999.2500
   1655.5212      14.6720     150.6989     163.3700      79.1880       0.4878    -999.2500    -999.2500       1.9824    -999.2500    -999.2500     136.5000    -999.2500    -999.2500
   1655.6736      14.7030     151.1232     164.5000      74.6250       0.4351    -999.2500    -999.2500       1.9854    -999.2500    -999.2500     136.6200    -999.2500    -999.2500
   1655.8260      14.6480     151.0735     163.7500      69.8130       0.4312    -999.2500    -999.2500       1.9873    -999.2500    -999.2500     136.8700    -999.2500    -999.2500
   1655.9784      14.6720     149.8711     162.1200      68.9380       0.4258    -999.2500    -999.2500       1.9922    -999.2500    -999.2500     136.5000    -999.2500    -999.2500
   1656.1309      14.3280     148.9052     161.5000      74.9380       0.4756    -999.2500    -999.2500       1.9902    -999.2500    -999.2500     137.1200    -999.2500    -999.2500
