#------------------------------------------------------------------------------
#
#   Created by  : [OpenWorks] Log Export Utility (LEXP)
#   Created on  : 2002-04-08 13:44:35
#   Project     : AREA_58_60_21DEC
#   User        : G15173
#   Interpreter : RONHO
#
#------------------------------------------------------------------------------
~VERSION INFORMATION
VERS. 2.0 : CWLS Log ASCII Standard - version 2.0
WRAP.  NO : One line per depth step
~WELL INFORMATION
#MNEMONIC   .UNIT                                           VALUE :DESCRIPTION
#------------------------------------------------------------------------------
STRT        .M                                           575.3100 :START DEPTH
STOP        .M                                          3739.8960 :STOP DEPTH
STEP        .M                                             0.1524 :STEP
NULL        .                                           -999.2500 :NULL VALUE
COMP        .                                             UNKNOWN :COMPANY
WELL        .                                           15/9-A-16 :WELL
FLD         .                                            SLEIPNER :FIELD
LOC         .                                             UNKNOWN :LOCATION
CNTY        .                                             UNKNOWN :COUNTY
STAT        .                                             UNKNOWN :STATE
CTRY        .                                              Norway :COUNTRY
SRVC        .                                             UNKNOWN :SERVICE COMPANY
DATE        .                                             UNKNOWN :LOG DATE
UWI         .                                        NO 15/9-A-16 :UNIQUE WELL ID
XCOORD      .                                       436137.417107 :SURFACE X
YCOORD      .                                      6470282.857379 :SURFACE Y
LAT         .                                           58.367417 :LATITUDE
LON         .                                            1.908404 :LONGITUDE
ELEV        .M                                            78.0000 :SURFACE ELEV
ELEV_TYPE   .                                                  KB :ELEV TYPE
~CURVE INFORMATION
#MNEMONIC.UNIT        API CODE       : CURVE DESCRIPTION
#------------------------------------------------------------------------------
DEPTH    .M                          : Measured Depth
TVD      .M                          : True Vertical Depth (TVD)
GR       .API                        : GR:SFINX:rC:NONE:v1 
NPHI     .v/v_decimal                : NPHI:SFINX:rC:NONE:v1 
PHIF     .v/v_decimal                : PHIF:SFINX:rC:NONE:v1 
RHOB     .g/cm3                      : RHOB:SFINX:rC:NONE:v1 
RT       .ohm.m                      : RT:SFINX:rC:NONE:v1 
~A     DEPTH         TVD           GR         NPHI         PHIF         RHOB           RT
# ...
   3315.1572   1106.8740      36.4100       0.2565       0.3636       2.0500       0.8810
   3315.3096   1106.8885      35.8080       0.2564       0.3636       2.0500       0.8830
   3315.4619   1106.9032      34.9760       0.2562       0.3636       2.0500       0.8850
   3315.6145   1106.9178      35.5180       0.2562       0.3642       2.0490       0.8870
   3315.7668   1106.9325      36.2930       0.2562       0.3642       2.0490       0.8880
   3315.9192   1106.9471      36.5470       0.2562       0.3636       2.0500       0.8890
   3316.0715   1106.9618      36.9220       0.2740       0.3630       2.0510       0.8840
   3316.2239   1106.9764      37.1950       0.2829       0.3630       2.0510       0.8770
   3316.3765   1106.9911      37.6100       0.3007       0.3630       2.0510       0.8710
   3316.5288   1107.0057      37.0310       0.3032       0.3630       2.0510       0.8700
   3316.6812   1107.0204      35.8720       0.3032       0.3630       2.0510       0.8680
   3316.8335   1107.0350      35.6780       0.3032       0.3618       2.0530       0.8670
   3316.9861   1107.0497      35.5680       0.3049       0.3588       2.0580       0.8660
   3317.1384   1107.0643      35.5470       0.3065       0.3582       2.0590       0.8670
   3317.2908   1107.0790      37.5330       0.3098       0.3576       2.0600       0.8690
   3317.4431   1107.0936      37.9610       0.3114       0.3576       2.0600       0.8750
   3317.5957   1107.1083      39.4130       0.3117       0.3570       2.0610       0.8870
   3317.7480   1107.1229      39.7610       0.3117       0.3582       2.0590       0.8850
   3317.9004   1107.1376      40.6530       0.3158       0.3594       2.0570       0.8830
   3318.0527   1107.1521      40.2640       0.3239       0.3600       2.0560       0.8960
   3318.2051   1107.1667      39.6390       0.3280       0.3600       2.0560       0.9010
   3318.3577   1107.1814      38.9940       0.3335       0.3600       2.0560       0.9090
   3318.5100   1107.1960      38.7090       0.3335       0.3606       2.0550       0.9120
   3318.6624   1107.2107      38.2310       0.3335       0.3606       2.0550       0.9140
   3318.8147   1107.2253      37.9300       0.3335       0.3606       2.0550       0.9160
   3318.9673   1107.2400      37.6010       0.3188       0.3606       2.0550       0.9010
   3319.1196   1107.2546      37.4750       0.3115       0.3606       2.0550       0.8940
   3319.2720   1107.2693      37.2880       0.3007       0.3606       2.0550       0.8800
   3319.4243   1107.2838      36.8200       0.3007       0.3606       2.0550       0.8730
   3319.5769   1107.2985      36.1030       0.3007       0.3618       2.0530       0.8700
   3319.7292   1107.3130      35.5180       0.3007       0.3624       2.0520       0.8680
   3319.8816   1107.3276      34.5950       0.3007       0.3636       2.0500       0.8620
   3320.0339   1107.3422      34.5280       0.3007       0.3636       2.0500       0.8580
   3320.1863   1107.3568      34.4200       0.3007       0.3636       2.0500       0.8600
   3320.3389   1107.3713      35.0760       0.3007       0.3636       2.0500       0.8650
   3320.4912   1107.3860      36.1760       0.3007       0.3624       2.0520       0.8760
   3320.6436   1107.4005      37.1380       0.3007       0.3612       2.0540       0.8830
   3320.7959   1107.4150      38.7960       0.2939       0.3600       2.0560       0.8890
   3320.9485   1107.4297      39.0170       0.2905       0.3594       2.0570       0.8880
   3321.1008   1107.4442      39.4100       0.2837       0.3588       2.0580       0.8870
   3321.2532   1107.4589      39.3170       0.2820       0.3582       2.0590       0.8690
   3321.4055   1107.4734      39.2790       0.2820       0.3582       2.0590       0.8690
   3321.5581   1107.4880      38.6760       0.2868       0.3655       2.0470       0.8630
   3321.7104   1107.5026      38.4150       0.2916       0.3661       2.0460       0.8620
   3321.8628   1107.5172      38.9280       0.3013       0.3673       2.0440       0.8530
   3322.0151   1107.5317      39.1610       0.3062       0.3679       2.0430       0.8520
   3322.1675   1107.5464      39.2500       0.3094       0.3691       2.0410       0.8550
   3322.3201   1107.5609      39.2930       0.3094       0.3691       2.0410       0.8550
   3322.4724   1107.5756      39.1280       0.3009       0.3661       2.0460       0.8640
   3322.6248   1107.5901      39.0450       0.2924       0.3655       2.0470       0.8690
   3322.7771   1107.6046      38.5890       0.2754       0.3648       2.0480       0.8740
   3322.9297   1107.6193      38.1340       0.2669       0.3648       2.0480       0.8790
   3323.0820   1107.6338      37.8640       0.2599       0.3642       2.0490       0.8810
   3323.2344   1107.6484      37.6210       0.2599       0.3642       2.0490       0.8830
   3323.3867   1107.6630      38.3970       0.2599       0.3667       2.0450       0.8850
   3323.5393   1107.6776      39.1980       0.2719       0.3679       2.0430       0.8860
   3323.6917   1107.6921      39.3220       0.2959       0.3697       2.0400       0.8870
   3323.8440   1107.7068      39.3220       0.3079       0.3703       2.0390       0.8870
   3323.9963   1107.7213      39.1380       0.3194       0.3721       2.0360       0.8800
   3324.1487   1107.7358      38.9530       0.3194       0.3727       2.0350       0.8740
   3324.3013   1107.7505      38.7660       0.3194       0.3733       2.0340       0.8690
   3324.4536   1107.7649      35.9950       0.3172       0.3770       2.0280       0.8660
   3324.6060   1107.7794      35.9120       0.3161       0.3788       2.0250       0.8630
   3324.7583   1107.7938      34.6770       0.3138       0.3776       2.0270       0.8590
   3324.9109   1107.8083      34.6100       0.3128       0.3752       2.0310       0.8570
   3325.0632   1107.8228      34.6640       0.3128       0.3679       2.0430       0.8550
   3325.2156   1107.8372      34.6680       0.3128       0.3685       2.0420       0.8540
   3325.3679   1107.8517      35.9690       0.3239       0.3685       2.0420       0.8520
   3325.5205   1107.8661      36.1030       0.3294       0.3697       2.0400       0.8590
   3325.6729   1107.8806      37.7660       0.3405       0.3721       2.0360       0.8690
   3325.8252   1107.8950      37.9760       0.3460       0.3733       2.0340       0.8770
   3325.9775   1107.9094      38.9560       0.3461       0.3758       2.0300       0.8900
   3326.1299   1107.9240      39.1030       0.3461       0.3764       2.0290       0.8870
   3326.2825   1107.9384      39.3650       0.3446       0.3703       2.0390       0.8830
   3326.4348   1107.9529      39.4100       0.3439       0.3697       2.0400       0.8840
   3326.5872   1107.9673      38.5790       0.3425       0.3667       2.0450       0.8870
   3326.7395   1107.9817      38.4150       0.3422       0.3661       2.0460       0.8890
   3326.8921   1107.9962      37.3370       0.3422       0.3642       2.0490       0.8940
   3327.0444   1108.0106      37.0980       0.3279       0.3655       2.0470       0.8920
   3327.1968   1108.0250      36.0990       0.2992       0.3673       2.0440       0.8900
   3327.3491   1108.0396      35.8540       0.2921       0.3685       2.0420       0.8910
   3327.5017   1108.0540      36.0960       0.2957       0.3703       2.0390       0.8930
   3327.6541   1108.0685      37.0550       0.2967       0.3703       2.0390       0.8880
   3327.8064   1108.0829      37.9490       0.3007       0.3703       2.0390       0.8830
   3327.9587   1108.0973      38.5460       0.3148       0.3691       2.0410       0.8880
   3328.1111   1108.1118      38.6180       0.3070       0.3685       2.0420       0.8960
   3328.2637   1108.1262      38.6150       0.2960       0.3667       2.0450       0.9020
   3328.4160   1108.1407      38.5660       0.2939       0.3667       2.0450       0.9040
   3328.5684   1108.1552      36.7250       0.2896       0.3667       2.0450       0.9020
