#------------------------------------------------------------------------------
#
#   Created by  : [OpenWorks] Log Export Utility (LEXP)
#   Created on  : 2011-12-19 12:32:06
#   Project     : AREA_58_60_21DEC
#   User        : AKAFU
#   Interpreter : AKAFU
#
#------------------------------------------------------------------------------
~VERSION INFORMATION
VERS. 2.0 : CWLS Log ASCII Standard - version 2.0
WRAP.  NO : One line per depth step
~WELL INFORMATION
#MNEMONIC   .UNIT                                           VALUE :DESCRIPTION
#------------------------------------------------------------------------------
STRT        .M                                             0.0000 :START DEPTH
STOP        .M                                          1999.9452 :STOP DEPTH
STEP        .M                                             0.1524 :STEP
NULL        .                                           -999.2500 :NULL VALUE
COMP        .                                             UNKNOWN :COMPANY
WELL        .                                          NO 15/9-13 :WELL
FLD         .                                            SLEIPNER :FIELD
LOC         .                                             UNKNOWN :LOCATION
CNTY        .                                             UNKNOWN :COUNTY
STAT        .                                             UNKNOWN :STATE
CTRY        .                                              Norway :COUNTRY
SRVC        .                                             UNKNOWN :SERVICE COMPANY
DATE        .                                             UNKNOWN :LOG DATE
UWI         .                                          NO 15/9-13 :UNIQUE WELL ID
XCOORD      .                                       437653.695349 :SURFACE X
YCOORD      .                                      6470978.020701 :SURFACE Y
LAT         .                                           58.373878 :LATITUDE
LON         .                                            1.934128 :LONGITUDE
ELEV        .M                                            25.0000 :SURFACE ELEV
ELEV_TYPE   .                                                  KB :ELEV TYPE
~CURVE INFORMATION
#MNEMONIC.UNIT        API CODE       : CURVE DESCRIPTION
#------------------------------------------------------------------------------
DEPTH    .M                          : Measured Depth
CALI     .inches                     : CALI:SFINX:rC:NONE:v1 
DT-CKS   .us/ft                      : DT-CKS:SFINX:rC:NONE:v1 
DT       .us/ft                      : DT:SFINX:rC:NONE:v1 
GR       .API                        : GR:SFINX:rC:NONE:v1 
NPHI     .v/v_decimal                : NPHI:SFINX:rC:NONE:v1 
PHIF     .v/v_decimal                : PHIF:SFINX:rC:NONE:v1 
RFT      .bar         UNKNOWN        : RFT:SFINX:rC:NONE:v1 
RHOB     .g/cm3                      : RHOB:SFINX:rC:NONE:v1 
RT       .ohm.m                      : RT:SFINX:rC:NONE:v1 
SAND     .unitless                   : SAND:SFINX:rC:NONE:v1 
SP       .mV                         : SP:SFINX:rC:NONE:v1 
SW       .v/v_decimal                : SW:SFINX:rC:NONE:v1 
VSH      .v/v_decimal                : VSH:SFINX:rC:NONE:v1 
~A     DEPTH         CALI       DT-CKS           DT           GR         NPHI         PHIF          RFT         RHOB           RT         SAND           SP           SW          VSH
# ...
   1991.5632      12.8440     143.7674     164.7500      57.3750       0.5288    -999.2500    -999.2500       1.9551    -999.2500    -999.2500     141.6200    -999.2500    -999.2500
   1991.7156      12.8440     142.9603     164.3700      59.0940       0.5244    -999.2500    -999.2500       1.9912    -999.2500    -999.2500     141.5000    -999.2500    -999.2500
   1991.8680      12.7030     142.1416     163.3700      57.3130       0.4961    -999.2500    -999.2500       2.0313    -999.2500    -999.2500     143.0000    -999.2500    -999.2500
   1992.0204      12.7660     141.2329     162.5000      61.3750       0.4639    -999.2500    -999.2500       2.0469    -999.2500    -999.2500     143.2500    -999.2500    -999.2500
   1992.1729      13.0780     140.4066     161.7500      61.3440       0.4873    -999.2500    -999.2500       2.0508    -999.2500    -999.2500     144.6200    -999.2500    -999.2500
   1992.3252      13.0550     139.4242     160.5000      61.7190       0.4927    -999.2500    -999.2500       2.0527    -999.2500    -999.2500     144.8700    -999.2500    -999.2500
   1992.4775      13.4300     139.5132     161.5000      56.5940       0.4815    -999.2500    -999.2500       2.0625    -999.2500    -999.2500     143.2500    -999.2500    -999.2500
   1992.6300      13.3590     139.8272     161.5000      57.8750       0.4766    -999.2500    -999.2500       2.0723    -999.2500    -999.2500     142.1200    -999.2500    -999.2500
   1992.7823      13.4220     140.1841     162.0000      59.2190       0.5249    -999.2500    -999.2500       2.0781    -999.2500    -999.2500     142.0000    -999.2500    -999.2500
   1992.9348      13.3590     140.0527     161.5000      66.5000       0.5591    -999.2500    -999.2500       2.0840    -999.2500    -999.2500     142.3700    -999.2500    -999.2500
   1993.0872      13.5860     139.9073     161.5000      63.6250       0.6426    -999.2500    -999.2500       2.0957    -999.2500    -999.2500     142.3700    -999.2500    -999.2500
   1993.2396      13.5310     140.6660     162.7500      59.7500       0.6235    -999.2500    -999.2500       2.0840    -999.2500    -999.2500     143.1200    -999.2500    -999.2500
   1993.3920      14.5310     142.1839     164.5000      52.5630       0.6357    -999.2500    -999.2500       2.0781    -999.2500    -999.2500     142.0000    -999.2500    -999.2500
   1993.5444      14.2270     143.5668     165.7500      51.5940       0.5469    -999.2500    -999.2500       2.0566    -999.2500    -999.2500     139.8700    -999.2500    -999.2500
   1993.6968      14.3750     144.2743     166.0000      54.0940       0.5356    -999.2500    -999.2500       2.0508    -999.2500    -999.2500     142.5000    -999.2500    -999.2500
   1993.8492      13.5310     144.2581     165.7500      54.9380       0.5034    -999.2500    -999.2500       2.0508    -999.2500    -999.2500     142.0000    -999.2500    -999.2500
   1994.0016      13.4610     143.1968     164.1200      54.0940       0.4800    -999.2500    -999.2500       2.0566    -999.2500    -999.2500     142.3700    -999.2500    -999.2500
   1994.1541      13.5080     142.5923     164.0000      54.8130       0.5605    -999.2500    -999.2500       2.0684    -999.2500    -999.2500     142.3700    -999.2500    -999.2500
   1994.3064      13.4840     142.3058     163.7500      58.0940       0.6016    -999.2500    -999.2500       2.0586    -999.2500    -999.2500     142.6200    -999.2500    -999.2500
   1994.4587      13.4450     141.5688     162.7500      59.0310       0.6162    -999.2500    -999.2500       2.0547    -999.2500    -999.2500     141.7500    -999.2500    -999.2500
   1994.6112      13.3590     141.0196     162.3700      58.1250       0.5713    -999.2500    -999.2500       2.0449    -999.2500    -999.2500     142.0000    -999.2500    -999.2500
   1994.7635      13.5630     141.2433     163.0000      57.1560       0.5342    -999.2500    -999.2500       2.0566    -999.2500    -999.2500     142.0000    -999.2500    -999.2500
   1994.9160      13.5860     140.6779     161.7500      60.0000       0.5542    -999.2500    -999.2500       2.0781    -999.2500    -999.2500     142.1200    -999.2500    -999.2500
   1995.0684      13.6800     140.4493     162.1200      61.1250       0.4839    -999.2500    -999.2500       2.0977    -999.2500    -999.2500     142.5000    -999.2500    -999.2500
   1995.2208      13.4060     140.4895     161.3700      61.4060       0.4683    -999.2500    -999.2500       2.0938    -999.2500    -999.2500     143.5000    -999.2500    -999.2500
   1995.3732      12.7730     140.5020     161.3700      61.4690       0.4600    -999.2500    -999.2500       2.0645    -999.2500    -999.2500     144.5000    -999.2500    -999.2500
   1995.5256      13.0780     140.5142     162.7500      64.3130       0.4932    -999.2500    -999.2500       2.0566    -999.2500    -999.2500     143.0000    -999.2500    -999.2500
   1995.6780      13.9380     140.5237     163.3700      68.8130       0.4678    -999.2500    -999.2500       2.0547    -999.2500    -999.2500     142.7500    -999.2500    -999.2500
   1995.8304      14.3200     140.5252     164.1200      64.8750       0.5088    -999.2500    -999.2500       2.0508    -999.2500    -999.2500     141.8700    -999.2500    -999.2500
   1995.9828      14.3520     140.5319     165.1200      60.4690       0.5269    -999.2500    -999.2500       2.0352    -999.2500    -999.2500     142.0000    -999.2500    -999.2500
   1996.1353      13.6560     140.5392    1095.0000      49.6880       0.5835    -999.2500    -999.2500       2.0293    -999.2500    -999.2500     140.2500    -999.2500    -999.2500
   1996.2876      15.2270     140.5535    2006.0000      52.6880       0.5532    -999.2500    -999.2500       2.0410    -999.2500    -999.2500     142.1200    -999.2500    -999.2500
   1996.4399      17.0310     140.5502    2006.0000      51.3440       0.5181    -999.2500    -999.2500       2.0527    -999.2500    -999.2500     142.7500    -999.2500    -999.2500
   1996.5924      18.2340     140.5618    2007.0000      57.5310       0.5381    -999.2500    -999.2500       2.0723    -999.2500    -999.2500     142.6200    -999.2500    -999.2500
   1996.7448      14.2580     140.5767    2009.0000      57.0940       0.5161    -999.2500    -999.2500       2.0840    -999.2500    -999.2500     142.8700    -999.2500    -999.2500
   1996.8972      15.5550     140.5733    1914.0000      62.9060       0.5449    -999.2500    -999.2500       2.0840    -999.2500    -999.2500     143.0000    -999.2500    -999.2500
   1997.0496      16.1880     140.5910    1912.0000      68.1880       0.5303    -999.2500    -999.2500       2.0703    -999.2500    -999.2500     142.3700    -999.2500    -999.2500
   1997.2020      16.3130     140.5956    1911.0000      67.7500       0.5498    -999.2500    -999.2500       2.0391    -999.2500    -999.2500     142.5000    -999.2500    -999.2500
   1997.3544      13.3130     140.6017    1912.0000      62.6880       0.5327    -999.2500    -999.2500       2.0059    -999.2500    -999.2500     143.1200    -999.2500    -999.2500
   1997.5068      14.2340     140.6096    1901.0000      53.6250       0.5102    -999.2500    -999.2500       1.9805    -999.2500    -999.2500     144.2500    -999.2500    -999.2500
   1997.6592      14.8440     140.6175    1140.0000      50.4060       0.5571    -999.2500    -999.2500       1.9814    -999.2500    -999.2500     142.8700    -999.2500    -999.2500
   1997.8116      15.4610     140.6194    1138.0000      46.8130       0.5776    -999.2500    -999.2500       1.9727    -999.2500    -999.2500     143.5000    -999.2500    -999.2500
   1997.9640      16.3130     140.6312    -938.0000      45.2500       0.5928    -999.2500    -999.2500       1.9678    -999.2500    -999.2500     143.0000    -999.2500    -999.2500
   1998.1165      15.8980     140.6410    -938.0000      44.8750       0.5698    -999.2500    -999.2500       1.9375    -999.2500    -999.2500     142.8700    -999.2500    -999.2500
