#------------------------------------------------------------------------------
#
#   Created by  : [OpenWorks] Log Export Utility (LEXP)
#   Created on  : 2011-12-19 12:32:06
#   Project     : AREA_58_60_21DEC
#   User        : AKAFU
#   Interpreter : AKAFU
#
#------------------------------------------------------------------------------
~VERSION INFORMATION
VERS. 2.0 : CWLS Log ASCII Standard - version 2.0
WRAP.  NO : One line per depth step
~WELL INFORMATION
#MNEMONIC   .UNIT                                           VALUE :DESCRIPTION
#------------------------------------------------------------------------------
STRT        .M                                             0.0000 :START DEPTH
STOP        .M                                          1999.9452 :STOP DEPTH
STEP        .M                                             0.1524 :STEP
NULL        .                                           -999.2500 :NULL VALUE
COMP        .                                             UNKNOWN :COMPANY
WELL        .                                          NO 15/9-13 :WELL
FLD         .                                            SLEIPNER :FIELD
LOC         .                                             UNKNOWN :LOCATION
CNTY        .                                             UNKNOWN :COUNTY
STAT        .                                             UNKNOWN :STATE
CTRY        .                                              Norway :COUNTRY
SRVC        .                                             UNKNOWN :SERVICE COMPANY
DATE        .                                             UNKNOWN :LOG DATE
UWI         .                                          NO 15/9-13 :UNIQUE WELL ID
XCOORD      .                                       437653.695349 :SURFACE X
YCOORD      .                                      6470978.020701 :SURFACE Y
LAT         .                                           58.373878 :LATITUDE
LON         .                                            1.934128 :LONGITUDE
ELEV        .M                                            25.0000 :SURFACE ELEV
ELEV_TYPE   .                                                  KB :ELEV TYPE
~CURVE INFORMATION
#MNEMONIC.UNIT        API CODE       : CURVE DESCRIPTION
#------------------------------------------------------------------------------
DEPTH    .M                          : Measured Depth
CALI     .inches                     : CALI:SFINX:rC:NONE:v1 
DT-CKS   .us/ft                      : DT-CKS:SFINX:rC:NONE:v1 
DT       .us/ft                      : DT:SFINX:rC:NONE:v1 
GR       .API                        : GR:SFINX:rC:NONE:v1 
NPHI     .v/v_decimal                : NPHI:SFINX:rC:NONE:v1 
PHIF     .v/v_decimal                : PHIF:SFINX:rC:NONE:v1 
RFT      .bar         UNKNOWN        : RFT:SFINX:rC:NONE:v1 
RHOB     .g/cm3                      : RHOB:SFINX:rC:NONE:v1 
RT       .ohm.m                      : RT:SFINX:rC:NONE:v1 
SAND     .unitless                   : SAND:SFINX:rC:NONE:v1 
SP       .mV                         : SP:SFINX:rC:NONE:v1 
SW       .v/v_decimal                : SW:SFINX:rC:NONE:v1 
VSH      .v/v_decimal                : VSH:SFINX:rC:NONE:v1 
~A     DEPTH         CALI       DT-CKS           DT           GR         NPHI         PHIF          RFT         RHOB           RT         SAND           SP           SW          VSH
# ...
   1481.9376      16.4220     127.8136     138.1200      65.6880       0.5000    -999.2500    -999.2500       2.3184    -999.2500    -999.2500     133.5000    -999.2500    -999.2500
   1482.0900      16.3130     133.7046     144.7500      75.7500       0.3989    -999.2500    -999.2500       2.3418    -999.2500    -999.2500     133.3700    -999.2500    -999.2500
   1482.2424      16.0780     139.6784     151.3700      87.0630       0.4927    -999.2500    -999.2500       2.1992    -999.2500    -999.2500     135.5000    -999.2500    -999.2500
   1482.3948      15.6410     141.2424     152.1200      93.5000       0.4805    -999.2500    -999.2500       2.0898    -999.2500    -999.2500     135.7500    -999.2500    -999.2500
   1482.5472      14.9060     140.7556     151.1200      92.3130       0.5317    -999.2500    -999.2500       2.0195    -999.2500    -999.2500     135.0000    -999.2500    -999.2500
   1482.6996      14.7660     141.2786     152.1200      89.6250       0.4497    -999.2500    -999.2500       2.0156    -999.2500    -999.2500     134.8700    -999.2500    -999.2500
   1482.8521      14.8590     141.7563     152.0000      87.7500       0.4580    -999.2500    -999.2500       2.0020    -999.2500    -999.2500     135.5000    -999.2500    -999.2500
   1483.0044      14.7420     143.9250     155.0000      86.1880       0.4868    -999.2500    -999.2500       1.9893    -999.2500    -999.2500     134.3700    -999.2500    -999.2500
   1483.1569      14.7270     144.9198     155.5000      92.6250       0.5049    -999.2500    -999.2500       1.9678    -999.2500    -999.2500     134.8700    -999.2500    -999.2500
   1483.3092      14.4690     146.0129     156.7500      95.5630       0.4482    -999.2500    -999.2500       1.9697    -999.2500    -999.2500     135.0000    -999.2500    -999.2500
   1483.4615      13.9530     146.9581     158.0000      92.9380       0.4273    -999.2500    -999.2500       1.9648    -999.2500    -999.2500     135.1200    -999.2500    -999.2500
   1483.6140      13.6480     146.3253     156.7500      85.9380       0.4629    -999.2500    -999.2500       1.9570    -999.2500    -999.2500     135.7500    -999.2500    -999.2500
   1483.7664      13.4450     146.7279     157.3700      82.6250       0.5566    -999.2500    -999.2500       1.9600    -999.2500    -999.2500     135.6200    -999.2500    -999.2500
   1483.9188      13.7730     147.5664     158.5000      84.4380       0.5601    -999.2500    -999.2500       1.9736    -999.2500    -999.2500     137.5000    -999.2500    -999.2500
   1484.0712      13.9300     147.7353     158.1200      86.5630       0.5898    -999.2500    -999.2500       2.0195    -999.2500    -999.2500     136.8700    -999.2500    -999.2500
   1484.2236      13.8440     149.1124     160.0000      84.8750       0.5727    -999.2500    -999.2500       2.0039    -999.2500    -999.2500     137.2500    -999.2500    -999.2500
   1484.3760      13.7420     149.8951     161.0000      91.9380       0.5259    -999.2500    -999.2500       1.9971    -999.2500    -999.2500     135.5000    -999.2500    -999.2500
   1484.5284      13.6250     148.3876     159.0000      95.1880       0.4727    -999.2500    -999.2500       1.9805    -999.2500    -999.2500     134.7500    -999.2500    -999.2500
   1484.6808      13.4920     147.1172     157.5000      95.5000       0.4790    -999.2500    -999.2500       1.9834    -999.2500    -999.2500     135.3700    -999.2500    -999.2500
   1484.8333      14.0000     147.0986     158.0000      85.7500       0.5029    -999.2500    -999.2500       1.9912    -999.2500    -999.2500     135.0000    -999.2500    -999.2500
   1484.9856      14.2030     146.1918     156.7500      86.3750       0.5020    -999.2500    -999.2500       1.9980    -999.2500    -999.2500     135.1200    -999.2500    -999.2500
   1485.1379      14.5160     145.7605     156.3700      89.3750       0.4644    -999.2500    -999.2500       1.9980    -999.2500    -999.2500     134.7500    -999.2500    -999.2500
   1485.2904      14.7660     145.6553     156.7500      89.1250       0.5020    -999.2500    -999.2500       1.9932    -999.2500    -999.2500     133.6200    -999.2500    -999.2500
   1485.4427      14.4140     143.5531     154.3700      87.1880       0.5088    -999.2500    -999.2500       1.9863    -999.2500    -999.2500     132.7500    -999.2500    -999.2500
   1485.5952      14.5310     140.7010     151.0000      84.2500       0.5508    -999.2500    -999.2500       1.9893    -999.2500    -999.2500     134.6200    -999.2500    -999.2500
   1485.7476      14.2340     139.6196     150.3700      85.9380       0.5200    -999.2500    -999.2500       1.9922    -999.2500    -999.2500     135.0000    -999.2500    -999.2500
   1485.9000      14.3050     138.9557     149.5000      90.1880       0.5195    -999.2500    -999.2500       2.0098    -999.2500    -999.2500     135.0000    -999.2500    -999.2500
   1486.0524      14.4380     139.2965     149.7500      90.5630       0.4624    -999.2500    -999.2500       2.0195    -999.2500    -999.2500     135.5000    -999.2500    -999.2500
   1486.2048      14.5390     141.3335     152.1200      96.6250       0.4575    -999.2500    -999.2500       2.0273    -999.2500    -999.2500     135.1200    -999.2500    -999.2500
   1486.3572      14.7270     143.9384     155.0000      93.5630       0.4326    -999.2500    -999.2500       2.0273    -999.2500    -999.2500     134.2500    -999.2500    -999.2500
   1486.5096      14.7660     145.0347     156.0000     100.7500       0.4277    -999.2500    -999.2500       2.0176    -999.2500    -999.2500     135.0000    -999.2500    -999.2500
   1486.6620      14.7030     145.0073     155.7500      99.3750       0.4585    -999.2500    -999.2500       2.0020    -999.2500    -999.2500     135.0000    -999.2500    -999.2500
   1486.8145      14.6250     144.6671     155.5000      97.4380       0.4932    -999.2500    -999.2500       1.9834    -999.2500    -999.2500     135.1200    -999.2500    -999.2500
   1486.9668      14.3670     143.9734     154.3700     101.4400       0.5425    -999.2500    -999.2500       1.9805    -999.2500    -999.2500     135.3700    -999.2500    -999.2500
   1487.1191      14.2730     144.8266     155.7500      97.3130       0.5605    -999.2500    -999.2500       1.9775    -999.2500    -999.2500     135.7500    -999.2500    -999.2500
   1487.2716      14.2730     145.5846     156.3700      96.9380       0.5396    -999.2500    -999.2500       1.9844    -999.2500    -999.2500     137.5000    -999.2500    -999.2500
   1487.4240      14.4380     146.0491     157.0000      91.2500       0.4771    -999.2500    -999.2500       1.9883    -999.2500    -999.2500     135.8700    -999.2500    -999.2500
   1487.5764      14.5160     145.2850     156.1200      90.8130       0.5005    -999.2500    -999.2500       1.9922    -999.2500    -999.2500     135.5000    -999.2500    -999.2500
   1487.7288      14.8360     144.0947     154.5000      91.1250       0.4990    -999.2500    -999.2500       1.9990    -999.2500    -999.2500     135.2500    -999.2500    -999.2500
   1487.8812      15.0230     144.3340     155.1200      93.7500       0.5264    -999.2500    -999.2500       2.0059    -999.2500    -999.2500     135.3700    -999.2500    -999.2500
   1488.0336      14.8200     144.7827     155.7500      93.6250       0.4844    -999.2500    -999.2500       1.9961    -999.2500    -999.2500     135.8700    -999.2500    -999.2500
   1488.1860      14.7730     144.1066     155.1200      90.3130       0.4849    -999.2500    -999.2500       1.9922    -999.2500    -999.2500     135.6200    -999.2500    -999.2500
   1488.3384      14.6090     142.0373     152.5000      90.3130       0.5146    -999.2500    -999.2500       1.9873    -999.2500    -999.2500     135.7500    -999.2500    -999.2500
   1488.4908      14.8200     141.3137     152.0000      92.4380       0.4795    -999.2500    -999.2500       1.9932    -999.2500    -999.2500     134.6200    -999.2500    -999.2500
