#------------------------------------------------------------------------------
#
#   Created by  : [OpenWorks] Log Export Utility (LEXP)
#   Created on  : 2011-12-19 12:32:06
#   Project     : AREA_58_60_21DEC
#   User        : AKAFU
#   Interpreter : AKAFU
#
#------------------------------------------------------------------------------
~VERSION INFORMATION
VERS. 2.0 : CWLS Log ASCII Standard - version 2.0
WRAP.  NO : One line per depth step
~WELL INFORMATION
#MNEMONIC   .UNIT                                           VALUE :DESCRIPTION
#------------------------------------------------------------------------------
STRT        .M                                             0.0000 :START DEPTH
STOP        .M                                          1999.9452 :STOP DEPTH
STEP        .M                                             0.1524 :STEP
NULL        .                                           -999.2500 :NULL VALUE
COMP        .                                             UNKNOWN :COMPANY
WELL        .                                          NO 15/9-13 :WELL
FLD         .                                            SLEIPNER :FIELD
LOC         .                                             UNKNOWN :LOCATION
CNTY        .                                             UNKNOWN :COUNTY
STAT        .                                             UNKNOWN :STATE
CTRY        .                                              Norway :COUNTRY
SRVC        .                                             UNKNOWN :SERVICE COMPANY
DATE        .                                             UNKNOWN :LOG DATE
UWI         .                                          NO 15/9-13 :UNIQUE WELL ID
XCOORD      .                                       437653.695349 :SURFACE X
YCOORD      .                                      6470978.020701 :SURFACE Y
LAT         .                                           58.373878 :LATITUDE
LON         .                                            1.934128 :LONGITUDE
ELEV        .M                                            25.0000 :SURFACE ELEV
ELEV_TYPE   .                                                  KB :ELEV TYPE
~CURVE INFORMATION
#MNEMONIC.UNIT        API CODE       : CURVE DESCRIPTION
#------------------------------------------------------------------------------
DEPTH    .M                          : Measured Depth
CALI     .inches                     : CALI:SFINX:rC:NONE:v1 
DT-CKS   .us/ft                      : DT-CKS:SFINX:rC:NONE:v1 
DT       .us/ft                      : DT:SFINX:rC:NONE:v1 
GR       .API                        : GR:SFINX:rC:NONE:v1 
NPHI     .v/v_decimal                : NPHI:SFINX:rC:NONE:v1 
PHIF     .v/v_decimal                : PHIF:SFINX:rC:NONE:v1 
RFT      .bar         UNKNOWN        : RFT:SFINX:rC:NONE:v1 
RHOB     .g/cm3                      : RHOB:SFINX:rC:NONE:v1 
RT       .ohm.m                      : RT:SFINX:rC:NONE:v1 
SAND     .unitless                   : SAND:SFINX:rC:NONE:v1 
SP       .mV                         : SP:SFINX:rC:NONE:v1 
SW       .v/v_decimal                : SW:SFINX:rC:NONE:v1 
VSH      .v/v_decimal                : VSH:SFINX:rC:NONE:v1 
~A     DEPTH         CALI       DT-CKS           DT           GR         NPHI         PHIF          RFT         RHOB           RT         SAND           SP           SW          VSH
# ...
   1367.9424      15.0000     148.2358     155.7500      88.2500       0.5361    -999.2500    -999.2500       1.9414    -999.2500    -999.2500     134.3700    -999.2500    -999.2500
   1368.0948      14.7420     147.4963     154.7500      81.8750       0.5952    -999.2500    -999.2500       1.9385    -999.2500    -999.2500     133.8700    -999.2500    -999.2500
   1368.2472      14.6950     146.9084     154.1200      78.5630       0.6299    -999.2500    -999.2500       1.9277    -999.2500    -999.2500     135.2500    -999.2500    -999.2500
   1368.3997      14.7190     146.5106     153.7500      80.0630       0.5571    -999.2500    -999.2500       1.9229    -999.2500    -999.2500     135.1200    -999.2500    -999.2500
   1368.5520      14.6950     146.0497     153.3700      83.3750       0.5454    -999.2500    -999.2500       1.9189    -999.2500    -999.2500     134.3700    -999.2500    -999.2500
   1368.7043      14.5080     146.0418     152.7500      84.0630       0.5166    -999.2500    -999.2500       1.9189    -999.2500    -999.2500     134.0000    -999.2500    -999.2500
   1368.8568      14.7500     146.7392     154.1200      90.4380       0.5562    -999.2500    -999.2500       1.9111    -999.2500    -999.2500     134.0000    -999.2500    -999.2500
   1369.0092      14.8670     147.2400     154.0000      90.9380       0.5615    -999.2500    -999.2500       1.9131    -999.2500    -999.2500     134.2500    -999.2500    -999.2500
   1369.1616      14.8200     148.3605     155.5000      92.5000       0.5679    -999.2500    -999.2500       1.9102    -999.2500    -999.2500     133.6200    -999.2500    -999.2500
   1369.3140      14.9690     148.7582     156.3700      86.3130       0.5317    -999.2500    -999.2500       1.9023    -999.2500    -999.2500     133.7500    -999.2500    -999.2500
   1369.4664      15.1330     147.4948     155.3700      83.6880       0.5024    -999.2500    -999.2500       1.8955    -999.2500    -999.2500     133.5000    -999.2500    -999.2500
   1369.6188      15.3200     144.9692     152.7500      85.2500       0.5137    -999.2500    -999.2500       1.8975    -999.2500    -999.2500     134.8700    -999.2500    -999.2500
   1369.7712      14.9220     142.2391     149.5000      83.9380       0.5273    -999.2500    -999.2500       1.9063    -999.2500    -999.2500     134.5000    -999.2500    -999.2500
   1369.9236      14.9530     141.3433     148.0000      85.6250       0.5215    -999.2500    -999.2500       1.9297    -999.2500    -999.2500     130.6200    -999.2500    -999.2500
   1370.0760      15.0470     142.6463     149.3700      86.3750       0.4653    -999.2500    -999.2500       1.9521    -999.2500    -999.2500     133.6200    -999.2500    -999.2500
   1370.2284      15.5780     144.7275     151.7500      92.9380       0.4277    -999.2500    -999.2500       1.9668    -999.2500    -999.2500     133.3700    -999.2500    -999.2500
   1370.3809      15.7190     146.2338     153.3700      89.1250       0.4273    -999.2500    -999.2500       1.9590    -999.2500    -999.2500     134.1200    -999.2500    -999.2500
   1370.5332      15.8520     146.1927     154.5000      86.9380       0.4941    -999.2500    -999.2500       1.9424    -999.2500    -999.2500     134.2500    -999.2500    -999.2500
   1370.6855      15.3050     143.9012     151.3700      84.6250       0.5493    -999.2500    -999.2500       1.9365    -999.2500    -999.2500     133.0000    -999.2500    -999.2500
   1370.8380      15.2810     142.5131     149.3700      87.9380       0.5225    -999.2500    -999.2500       1.9355    -999.2500    -999.2500     133.5000    -999.2500    -999.2500
   1370.9904      15.8050     142.2845     150.0000      86.1880       0.5024    -999.2500    -999.2500       1.9453    -999.2500    -999.2500     133.7500    -999.2500    -999.2500
   1371.1428      15.8750     141.6898     148.7500      80.8750       0.4844    -999.2500    -999.2500       1.9561    -999.2500    -999.2500     134.1200    -999.2500    -999.2500
   1371.2952      16.2500     141.8861     149.0000      82.8130       0.5444    -999.2500    -999.2500       1.9580    -999.2500    -999.2500     133.7500    -999.2500    -999.2500
   1371.4476      15.8280     142.1690     149.7500      85.6880       0.5581    -999.2500    -999.2500       1.9541    -999.2500    -999.2500     134.6200    -999.2500    -999.2500
   1371.6000      15.6950     141.4338     149.1200      86.4380       0.5278    -999.2500    -999.2500       1.9473    -999.2500    -999.2500     136.0000    -999.2500    -999.2500
   1371.7524      15.3980     140.7544     147.5000      87.6880       0.5054    -999.2500    -999.2500       1.9541    -999.2500    -999.2500     134.6200    -999.2500    -999.2500
   1371.9048      16.3440     141.7328     148.7500      87.2500       0.4829    -999.2500    -999.2500       1.9482    -999.2500    -999.2500     134.1200    -999.2500    -999.2500
   1372.0573      15.5310     142.7518     150.3700      89.0630       0.5054    -999.2500    -999.2500       1.9365    -999.2500    -999.2500     133.8700    -999.2500    -999.2500
   1372.2096      15.2580     142.7585     150.0000      84.1250       0.5117    -999.2500    -999.2500       1.9258    -999.2500    -999.2500     134.3700    -999.2500    -999.2500
   1372.3621      15.0630     142.4610     150.1200      84.3130       0.4644    -999.2500    -999.2500       1.9268    -999.2500    -999.2500     134.2500    -999.2500    -999.2500
   1372.5144      15.2110     141.6651     149.0000      79.3130       0.5107    -999.2500    -999.2500       1.9463    -999.2500    -999.2500     133.8700    -999.2500    -999.2500
   1372.6667      15.3050     140.8275     148.5000      83.3750       0.4722    -999.2500    -999.2500       1.9512    -999.2500    -999.2500     134.6200    -999.2500    -999.2500
   1372.8192      15.3910     140.2170     147.1200      81.3130       0.4771    -999.2500    -999.2500       1.9580    -999.2500    -999.2500     134.2500    -999.2500    -999.2500
   1372.9716      15.4840     140.6498     148.0000      80.0630       0.4409    -999.2500    -999.2500       1.9453    -999.2500    -999.2500     132.7500    -999.2500    -999.2500
   1373.1240      15.0160     141.2357     148.3700      76.4380       0.4604    -999.2500    -999.2500       1.9473    -999.2500    -999.2500     131.5000    -999.2500    -999.2500
   1373.2764      14.7660     142.2830     149.3700      75.5000       0.4937    -999.2500    -999.2500       1.9463    -999.2500    -999.2500     133.2500    -999.2500    -999.2500
   1373.4288      15.0390     143.2617     150.7500      81.5630       0.4868    -999.2500    -999.2500       1.9521    -999.2500    -999.2500     133.3700    -999.2500    -999.2500
   1373.5812      15.0700     143.5214     151.0000      81.2500       0.5142    -999.2500    -999.2500       1.9414    -999.2500    -999.2500     133.1200    -999.2500    -999.2500
   1373.7336      15.3520     142.9798     150.7500      82.5630       0.5596    -999.2500    -999.2500       1.9414    -999.2500    -999.2500     133.7500    -999.2500    -999.2500
   1373.8860      14.7970     141.9376     149.1200      79.0000       0.5562    -999.2500    -999.2500       1.9395    -999.2500    -999.2500     133.1200    -999.2500    -999.2500
   1374.0385      14.8910     141.8492     149.1200      82.3130       0.5107    -999.2500    -999.2500       1.9619    -999.2500    -999.2500     133.1200    -999.2500    -999.2500
   1374.1908      15.0000     142.1251     149.5000      84.3750       0.4868    -999.2500    -999.2500       1.9668    -999.2500    -999.2500     133.6200    -999.2500    -999.2500
   1374.3431      14.7420     142.3842     149.7500      87.5630       0.4878    -999.2500    -999.2500       1.9609    -999.2500    -999.2500     133.3700    -999.2500    -999.2500
   1374.4956      14.6330     142.4189     150.0000      83.4380       0.5327    -999.2500    -999.2500       1.9414    -999.2500    -999.2500     133.7500    -999.2500    -999.2500
